City,Country,Lng,Lat,Date,Avg Temp,Max Temp,Humidity,Clouds,Wind speed
Nancha,CN,129.26,47.14,1538032248,17.78,17.78,50,0,1.32
Palomares,ES,-5.74,40.39,1538031600,12.0,12.0,93,20,1.5
Rikitea,PF,-134.97,-23.12,1538032250,21.88,21.88,100,44,10.02
Victoria,BN,115.24,5.28,1538029800,31.01,32.0,79,75,1.5
Hermanus,ZA,19.24,-34.42,1538032253,14.08,14.08,81,36,3.72
Suruc,TR,38.42,36.98,1538029200,27.0,27.0,39,0,3.1
Iralaya,HN,-83.23,15.0,1538032255,26.83,26.83,94,56,2.67
Sao Joao da Barra,BR,-41.05,-21.64,1538032256,24.08,24.08,95,0,12.92
Mataura,NZ,168.86,-46.19,1538032257,7.88,7.88,87,88,2.42
Tuktoyaktuk,CA,-133.03,69.44,1538032258,-0.18,-0.18,100,88,10.92
Pitimbu,BR,-34.81,-7.47,1538028000,24.0,24.0,88,0,3.6
Talnakh,RU,88.39,69.49,1538032261,8.33,8.33,90,92,9.27
Puerto Ayora,EC,-90.35,-0.74,1538032262,20.93,20.93,100,80,5.82
Champerico,MX,-93.6,16.38,1538032263,20.18,20.18,93,48,0.92
Ushuaia,AR,-68.31,-54.81,1538028000,4.0,4.0,60,20,3.6
Tasiilaq,GL,-37.64,65.61,1538031000,1.0,1.0,74,88,2.6
Vila Velha,BR,-38.6,-3.71,1538031600,26.0,26.0,74,40,7.7
Kodinsk,RU,99.18,58.6,1538032268,8.33,8.33,78,68,2.87
Ambovombe,MG,46.09,-25.18,1538032269,26.58,26.58,66,0,1.67
Esperance,TT,-61.45,10.24,1538028000,25.0,25.0,100,20,1.32
Kapaa,US,-159.32,22.08,1538027760,25.6,25.6,96,75,1.5
Inirida,CO,-67.92,3.87,1538032274,22.93,22.93,95,0,0.62
Srednekolymsk,RU,153.71,67.46,1538032275,1.73,1.73,80,88,1.52
Atuona,PF,-139.03,-9.8,1538032276,26.93,26.93,99,0,5.02
Provideniya,RU,-173.23,64.42,1538028000,8.0,8.0,75,75,3.0
Pisco,PE,-76.2,-13.71,1538028000,17.0,17.0,82,90,1.5
Kalianget,ID,109.91,-7.35,1538032279,30.78,30.78,38,8,0.77
Norman Wells,CA,-126.83,65.28,1538028000,-3.0,-3.0,92,20,2.1
Ribeira Grande,PT,-28.7,38.52,1538029800,24.0,24.0,88,75,6.7
Bubaque,GW,-15.83,11.28,1538032283,26.98,26.98,100,12,6.72
Sarangani,PH,125.46,5.4,1538032285,29.33,29.33,94,0,6.92
Bredasdorp,ZA,20.04,-34.53,1538028000,19.0,19.0,59,48,3.6
New Norfolk,AU,147.06,-42.78,1538029800,19.0,19.0,37,0,6.7
Karaton,ID,106.1,-6.34,1538029800,33.0,33.0,55,20,5.1
Georgetown,GY,-58.16,6.8,1538028000,25.0,25.0,94,0,1.87
Port Alfred,ZA,26.89,-33.59,1538032291,17.28,17.28,93,44,3.42
Qaanaaq,GL,-69.36,77.48,1538032293,-5.28,-5.28,100,88,3.22
Lebu,ET,38.73,8.96,1538028000,19.0,19.0,52,0,3.6
Uspenka,UA,39.16,48.39,1538032295,8.73,8.73,74,8,3.92
Te Anau,NZ,167.72,-45.41,1538032296,6.83,6.83,70,48,1.32
Manavgat,TR,31.44,36.79,1538029200,25.0,25.0,33,40,6.2
Severo-Kurilsk,RU,156.12,50.68,1538032299,10.18,10.18,88,0,5.77
Thompson,CA,-97.86,55.74,1538028000,-2.0,-2.0,86,75,1.12
Punta Arenas,CL,-70.91,-53.16,1538028000,0.0,0.0,95,0,5.7
San Patricio,PY,-56.83,-26.98,1538032303,19.18,19.18,98,80,1.12
Hobart,AU,147.33,-42.88,1538029800,19.0,19.0,37,0,6.7
Buala,SB,159.59,-8.15,1538032307,26.68,26.68,98,88,6.92
Vaini,IN,74.49,15.34,1538032309,30.28,30.28,68,0,1.27
Santa Maria,BR,-53.81,-29.69,1538032311,17.13,17.13,93,68,1.22
Amatan,MX,-92.82,17.37,1538032312,20.08,20.08,90,48,0.72
Kodiak,US,-94.76,39.95,1538031180,7.2,7.2,96,1,1.5
Deputatskiy,RU,139.9,69.3,1538032157,-1.53,-1.53,76,64,1.77
Kaeo,NZ,173.78,-35.1,1538032321,13.73,13.73,58,20,3.92
Bluff,AU,149.07,-23.58,1538032322,30.58,30.58,24,32,2.07
Castro,CL,-73.76,-42.48,1538032323,7.23,7.23,100,92,2.42
Poum,MK,20.71,41.28,1538029800,8.0,8.0,31,0,4.6
Fairfield,US,-122.04,38.25,1538030100,15.75,19.4,87,1,3.1
Ilulissat,GL,-51.1,69.22,1538031000,1.0,1.0,47,76,7.2
Busselton,AU,115.35,-33.64,1538032329,16.38,16.38,100,64,5.42
Khatanga,RU,102.47,71.98,1538032330,2.98,2.98,73,36,10.62
Sagarejo,GE,45.33,41.73,1538029800,16.0,16.0,63,90,10.8
Mayumba,GA,10.65,-3.44,1538032332,23.83,23.83,100,92,3.77
Cockburn Town,TC,-71.14,21.46,1538032323,28.18,28.18,100,92,7.37
Maraba,BR,-49.1,-5.35,1538028000,26.0,26.0,78,0,1.5
Albany,US,-73.75,42.65,1538031240,13.34,13.9,71,75,4.1
Lagoa,PT,-8.45,37.14,1538029800,23.0,23.0,69,0,4.1
Avarua,CK,-159.78,-21.21,1538028000,23.0,23.0,83,75,1.5
Tura,IN,90.21,25.52,1538032339,29.18,29.18,87,32,2.02
Saint Anthony,US,-111.68,43.97,1538027760,8.59,12.2,8,1,4.6
Progreso,UY,-56.22,-34.68,1538028000,14.0,14.0,87,75,5.1
Hervey Bay,AU,152.85,-25.3,1538032342,22.83,22.83,80,0,3.57
East London,ZA,27.91,-33.02,1538028000,19.0,19.0,63,0,2.1
Russell,AR,-68.8,-33.01,1538028000,12.0,12.0,87,75,2.1
Yellowknife,CA,-114.38,62.45,1538028000,-3.0,-3.0,63,90,5.7
Osakarovka,KZ,72.58,50.56,1538032346,19.08,19.08,55,0,3.82
Torbay,CA,-52.73,47.66,1538028000,10.0,10.0,87,90,7.7
Samarai,PG,150.67,-10.62,1538032350,25.68,25.68,98,0,7.42
Emporia,US,-96.18,38.4,1538027580,7.8,7.8,85,1,3.6
Cape Town,ZA,18.42,-33.93,1538029800,14.0,14.0,93,75,6.7
Mitu,IR,46.09,36.2,1538032353,23.18,23.18,22,0,1.07
Miles City,US,-105.84,46.41,1538031180,11.7,11.7,60,90,3.6
Ponta Delgada,PT,-25.67,37.73,1538029800,23.0,23.0,88,40,8.2
Kaitangata,NZ,169.85,-46.28,1538032356,8.18,8.18,80,0,3.17
Borogontsy,RU,131.17,62.67,1538032357,11.88,11.88,52,44,1.62
Chuy,UY,-53.46,-33.69,1538032129,15.58,15.58,87,92,7.07
Torres,BR,-49.73,-29.34,1538032359,19.43,19.43,96,92,0.17
Bethel,US,-161.76,60.79,1538031180,7.8,7.8,85,1,4.1
Saint-Philippe,CA,-73.48,45.36,1538031300,10.31,12.0,96,75,2.82
Barrow,AR,-60.23,-38.31,1538032364,7.08,7.08,87,76,4.02
Beloha,MG,45.06,-25.17,1538032365,26.18,26.18,67,8,2.07
Livadiya,RU,132.68,42.87,1538032366,17.03,17.03,100,0,2.07
Kenai,US,-151.26,60.55,1538031360,6.68,7.8,89,1,1.5
Hamilton,BM,-64.78,32.3,1538027700,25.0,25.0,69,40,5.1
Ostrovnoy,RU,39.51,68.05,1538031940,4.23,4.23,100,88,3.87
Setubal,AR,-60.68,-31.5,1538032372,16.98,16.98,92,0,5.87
Jamestown,AU,138.6,-33.21,1538032374,20.23,20.23,22,0,5.67
Rundu,,19.77,-17.91,1538032375,20.83,20.83,64,88,3.12
Chongwe,ZM,28.68,-15.33,1538032376,26.28,26.28,35,0,4.47
Luderitz,,15.16,-26.65,1538032228,11.98,11.98,84,0,5.32
Maldonado,UY,-54.96,-34.91,1538032378,14.23,14.23,95,92,5.37
Puerto Penasco,MX,-113.53,31.32,1538032370,28.48,28.48,97,0,2.77
Port Augusta,AU,137.76,-32.49,1538028000,17.0,17.0,63,0,5.1
Qaqortoq,GL,-46.03,60.72,1538031000,3.0,3.0,69,92,2.6
Iranshahr,IR,60.69,27.21,1538029800,35.0,35.0,15,0,0.72
Mar del Plata,AR,-67.52,-46.43,1538032098,4.18,4.18,88,44,4.72
Karabuk,TR,32.63,41.2,1538027400,13.0,13.0,87,75,1.12
Faanui,PF,-151.75,-16.48,1538032392,25.73,25.73,100,0,6.67
Nalut,LY,10.98,31.86,1538032393,18.48,18.48,89,92,4.12
Guaraciaba do Norte,BR,-40.75,-4.16,1538032394,18.78,18.78,92,0,1.92
Basco,US,-91.2,40.33,1538030100,7.77,8.9,93,1,1.5
Mahebourg,MU,57.7,-20.41,1538028000,26.0,26.0,61,40,6.2
Cheremukhovo,RU,46.23,56.23,1538032397,5.18,5.18,84,76,7.42
Lourdes,SV,-89.37,13.73,1538031000,21.93,25.0,83,75,3.1
Leningradskiy,RU,178.42,69.38,1538032400,5.23,5.23,93,64,6.17
Cidreira,BR,-50.22,-30.17,1538032401,18.13,18.13,94,56,2.22
Araras,BR,-47.38,-22.36,1538032286,17.78,17.78,90,8,1.22
Labuhan,ID,115.51,-2.54,1538032403,33.33,33.33,42,0,1.72
Lompoc,US,-120.46,34.64,1538030220,13.84,17.2,100,90,2.1
Bonavista,CA,-53.11,48.65,1538032407,12.18,12.18,88,56,12.32
Kattivakkam,IN,80.32,13.22,1538031600,33.0,33.0,49,40,4.6
Sibu,MY,111.83,2.29,1538031600,32.0,32.0,62,75,2.6
Bud,NO,6.91,62.91,1538031000,8.0,8.0,75,75,7.2
Port Elizabeth,US,-74.98,39.31,1538031240,21.23,22.8,90,75,6.7
Ambilobe,MG,49.05,-13.19,1538032414,27.48,27.48,46,0,8.37
Lorengau,PG,147.27,-2.02,1538032415,28.98,28.98,100,12,1.07
Hilo,US,-155.08,19.71,1538028960,21.94,27.2,79,75,1.5
Marawi,PH,124.29,8.0,1538032417,24.13,24.13,88,36,2.37
Zeya,RU,127.27,53.74,1538032418,17.58,17.58,35,0,2.22
Ulladulla,AU,150.48,-35.36,1538028000,20.0,20.0,49,0,6.2
Nelson Bay,AU,152.14,-32.72,1538029800,19.0,19.0,59,20,6.2
Nizhniy Tsasuchey,RU,115.13,50.52,1538032421,19.53,19.53,47,68,8.67
Teknaf,BD,92.31,20.86,1538032187,28.68,28.68,100,64,1.72
Dikson,RU,80.55,73.51,1538032424,2.83,2.83,100,80,8.17
Katsuura,JP,134.5,33.93,1538028000,23.0,23.0,60,20,1.5
Gigmoto,PH,124.39,13.78,1538032427,29.88,29.88,92,56,4.82
Ponta do Sol,BR,-46.0,-20.63,1538032428,17.13,17.13,93,12,0.67
Maningrida,AU,134.23,-12.05,1538032429,28.88,28.88,63,0,6.37
Bayonet Point,US,-82.68,28.33,1538030100,24.47,26.1,100,40,3.42
Arlit,NE,7.39,18.74,1538032431,23.18,23.18,25,36,1.42
Saint George,GR,22.34,39.45,1538031000,16.0,16.0,38,75,6.2
Lixourion,GR,20.43,38.2,1538031000,18.56,19.0,42,20,4.1
Upernavik,GL,-56.15,72.79,1538032435,0.88,0.88,100,88,6.27
Tiksi,RU,128.87,71.64,1538032436,0.63,0.63,94,8,5.27
Tuatapere,NZ,167.69,-46.13,1538032437,7.73,7.73,100,44,3.12
College,US,-147.8,64.86,1538031480,2.0,3.9,95,1,1.5
Butaritari,KI,172.79,3.07,1538032439,28.53,28.53,100,8,0.72
Nome,US,-94.42,30.04,1538031300,23.19,23.7,93,75,2.47
Cabra,ES,-4.43,37.47,1538031600,18.48,19.0,100,0,0.5
Kamaishi,JP,141.86,39.28,1538028000,13.0,13.0,100,75,3.6
Togur,RU,82.83,58.36,1538032443,17.38,17.38,62,0,3.02
Pahrump,US,-115.98,36.21,1538031480,20.87,23.9,8,1,1.12
Necochea,AR,-58.74,-38.55,1538032439,8.23,8.23,83,80,3.87
Qianjiang,CN,112.89,30.43,1538032447,24.38,24.38,82,24,2.77
San Quintin,PH,120.52,17.54,1538031600,28.0,28.0,83,75,5.1
Vila Franca do Campo,PT,-25.43,37.72,1538031600,22.0,22.0,94,40,5.1
Karangampel,ID,108.44,-6.46,1538032450,30.38,30.38,88,0,4.27
Kavieng,PG,150.8,-2.57,1538032452,29.18,29.18,100,92,2.92
Muisne,EC,-80.02,0.61,1538032453,22.33,22.33,96,68,3.02
Hovd,NO,10.7,63.83,1538031000,7.52,8.0,81,75,5.7
Taoudenni,ML,-3.98,22.68,1538032455,26.33,26.33,31,20,3.67
Manjacaze,MZ,33.88,-24.71,1538032457,24.93,24.93,83,76,3.12
Saskylakh,RU,114.09,71.97,1538032458,0.33,0.33,91,0,5.47
Shieli,KZ,66.74,44.18,1538032459,22.23,22.23,35,0,3.02
Mwinilunga,ZM,24.43,-11.73,1538032461,22.78,22.78,57,12,1.67
Middle Island,US,-72.94,40.88,1538031360,17.55,18.9,72,90,4.6
Padang,ID,100.36,-0.92,1538032464,27.08,27.08,100,20,2.07
Iqaluit,CA,-68.52,63.75,1538028000,0.0,0.0,100,90,1.5
Rawson,AR,-65.11,-43.3,1538032467,5.18,5.18,71,88,4.07
Baker City,US,-117.83,44.77,1538031360,9.01,10.0,57,1,2.1
Batticaloa,LK,81.69,7.71,1538032405,29.73,29.73,92,0,2.02
Gamba,CN,88.52,28.28,1538032472,8.13,8.13,44,32,1.17
Port Hedland,AU,118.58,-20.31,1538031600,35.0,35.0,28,0,8.2
Alenquer,BR,-54.74,-1.95,1538028000,27.0,27.0,94,0,3.1
Henties Bay,,14.28,-22.12,1538032477,11.23,11.23,100,0,1.07
Bealanana,MG,48.75,-14.54,1538032478,23.73,23.73,39,0,1.62
Astana,KZ,71.43,51.13,1538029800,20.0,20.0,42,0,2.0
Kloulklubed,PW,134.26,7.04,1538032480,28.73,28.73,98,64,6.17
Santa Cruz,US,-122.03,36.97,1538030100,13.76,16.1,93,1,0.97
Bonnyville,CA,-110.74,54.27,1538031600,4.0,4.0,93,75,2.6
Meulaboh,ID,96.13,4.14,1538032485,28.58,28.58,100,8,1.77
Kavaratti,IN,72.64,10.57,1538032486,28.83,28.83,100,32,3.32
Cabo San Lucas,MX,-109.91,22.89,1538032483,27.98,27.98,100,0,1.62
Batagay-Alyta,RU,130.41,67.8,1538032489,-4.58,-4.58,83,76,2.57
Tigil,RU,158.67,57.8,1538032490,8.28,8.28,65,88,4.57
Palmer,AU,139.16,-34.85,1538031600,15.0,15.0,67,75,3.6
Victor Harbor,AU,138.62,-35.55,1538031600,15.0,15.0,67,75,3.6
Tabou,CI,-7.36,4.42,1538032494,25.63,25.63,100,92,5.42
Bilibino,RU,166.44,68.06,1538032495,4.63,4.63,84,92,3.12
Vao,EE,26.19,59.1,1538032496,9.08,9.08,71,0,8.82
Bocaiuva,BR,-43.81,-17.12,1538032497,17.88,17.88,76,0,3.67
Palauig,PH,119.9,15.44,1538032498,27.98,27.98,90,64,2.67
Avera,US,-82.53,33.19,1538030280,22.34,23.0,97,1,1.97
Mitsamiouli,KM,43.28,-11.38,1538028000,29.0,29.0,54,20,8.2
Bilma,NE,12.92,18.69,1538032502,22.58,22.58,30,0,1.17
Kruisfontein,ZA,24.73,-34.0,1538032503,16.83,16.83,78,36,2.72
Hithadhoo,MV,73.08,-0.6,1538032251,28.33,28.33,100,88,8.82
Labytnangi,RU,66.39,66.66,1538032506,8.88,8.88,92,0,6.27
Ambulu,ID,113.61,-8.35,1538032507,26.33,26.33,85,0,3.77
Rabo de Peixe,PT,-25.58,37.8,1538031600,22.0,22.0,94,40,5.1
Comodoro Rivadavia,AR,-67.48,-45.87,1538028000,5.0,5.0,80,0,1.5
Chicama,PE,-79.15,-7.84,1538028000,16.0,16.0,93,90,4.1
Bibbiena,IT,11.82,43.7,1538031300,10.98,12.0,54,0,0.5
Sintereag,RO,24.3,47.18,1538029800,4.0,4.0,69,0,0.5
Lavrentiya,RU,-170.99,65.58,1538032514,6.08,6.08,95,8,4.57
Escarcega,MX,-90.75,18.61,1538032515,26.43,26.43,76,88,1.62
Adrar,DZ,-0.29,27.87,1538028000,24.0,24.0,60,75,6.2
Aktau,KZ,51.16,43.65,1538029800,16.0,16.0,72,90,10.0
Husavik,CA,-96.99,50.56,1538032518,5.43,5.43,100,92,1.72
Nola,CF,16.05,3.52,1538032519,23.43,23.43,93,92,1.17
Vila,IT,8.4,45.18,1538031600,10.09,12.0,76,0,1.32
Chokurdakh,RU,147.9,70.62,1538032508,2.73,2.73,97,80,6.07
Saint-Pierre,FR,4.24,48.95,1538031600,9.09,10.0,87,0,2.1
Turbat,PK,63.05,26.0,1538032526,28.08,28.08,75,8,1.97
Pangnirtung,CA,-65.72,66.15,1538032527,-5.18,-5.18,92,0,2.17
Goderich,CA,-81.71,43.74,1538032528,9.23,9.23,85,0,2.02
Kailua,US,-157.74,21.39,1538030460,25.53,26.1,93,75,2.1
Backi Petrovac,RS,19.6,45.36,1538031600,7.98,9.0,76,0,1.0
Carinhanha,BR,-43.77,-14.3,1538032532,22.08,22.08,63,0,6.02
Sao Filipe,CV,-24.5,14.9,1538032534,25.58,25.58,99,92,2.52
Raudeberg,NO,5.14,61.99,1538031000,6.99,8.0,87,75,5.7
Arraial do Cabo,BR,-42.02,-22.97,1538032536,22.98,22.98,92,0,6.02
Goldsboro,US,-77.99,35.38,1538031180,22.59,23.4,94,75,3.32
Loandjili,CG,11.87,-4.77,1538028000,24.0,24.0,88,90,1.5
Agadez,NE,7.99,16.97,1538028000,28.0,28.0,37,76,2.07
Paraiso,MX,-104.61,24.01,1538032540,17.83,17.83,69,80,3.37
Hofn,IS,-15.21,64.25,1538032541,4.88,4.88,100,8,1.77
Mehamn,NO,27.85,71.03,1538031000,4.43,5.0,80,75,12.3
Senador Jose Porfirio,BR,-51.95,-2.59,1538032549,26.08,26.08,84,8,3.52
Vysokopillya,UA,33.53,47.49,1538029800,7.0,7.0,65,0,6.0
Komsomolskiy,RU,63.78,67.55,1538032552,6.23,6.23,100,88,6.57
Sur,OM,59.53,22.57,1538032302,30.98,30.98,81,0,1.77
Vestmannaeyjar,IS,-20.27,63.44,1538029920,5.0,5.0,86,75,7.2
Codrington,AU,153.24,-28.95,1538032556,18.13,18.13,80,92,1.82
Florence,US,-87.68,34.8,1538031360,20.05,21.1,92,90,2.6
Ostersund,SE,14.64,63.18,1538031000,5.0,5.0,80,75,8.2
Kamenka,RU,44.05,53.19,1538032560,4.73,4.73,82,88,8.67
Lala,PH,123.75,7.97,1538032561,26.08,26.08,90,24,2.22
Jalu,LY,21.55,29.03,1538032562,23.33,23.33,81,32,4.77
Korgen,NO,13.83,66.08,1538031000,2.51,4.0,94,40,1.5
Bongandanga,CD,21.07,1.51,1538032564,22.48,22.48,93,44,1.12
Bristol,GB,-2.6,51.45,1538031360,6.94,12.0,71,0,0.5
Brownsville,US,-97.49,25.91,1538031180,26.32,26.7,93,1,5.07
Acapulco,MX,-99.88,16.86,1538026920,26.0,26.0,83,75,2.6
Carnarvon,ZA,22.13,-30.97,1538032570,8.53,8.53,58,0,1.42
Zhoucheng,CN,119.33,31.35,1538032571,26.38,26.38,62,12,3.62
Bosaso,SO,49.18,11.28,1538028000,32.0,32.0,62,0,5.1
Hasaki,JP,140.83,35.73,1538030880,17.0,17.0,93,75,5.7
Isiro,CD,27.62,2.77,1538032575,23.88,23.88,85,44,1.32
Camopi,GF,-52.33,3.17,1538032576,24.58,24.58,84,12,1.42
Pevek,RU,170.27,69.7,1538032577,7.18,7.18,87,24,6.12
Atherton,GB,-2.49,53.52,1538031000,14.99,16.0,87,75,2.1
Ternate,PH,120.72,14.29,1538031600,29.0,29.0,100,75,8.2
Quatre Cocos,MU,57.76,-20.21,1538028000,26.0,26.0,61,40,6.2
Yarim,YE,44.38,14.3,1538032285,21.38,21.38,21,0,2.87
Caribou,US,-68.01,46.86,1538027760,11.43,12.8,79,1,5.1
Gushikawa,JP,127.87,26.35,1538031360,22.58,30.0,75,20,12.9
Beroroha,MG,45.17,-21.68,1538032586,28.58,28.58,49,0,1.82
Vadinsk,RU,43.04,53.69,1538032587,4.43,4.43,95,88,8.62
Linqiong,CN,103.46,30.42,1538028000,21.0,21.0,77,40,4.0
Dicabisagan,PH,122.42,17.08,1538032591,27.98,27.98,99,24,1.27
Dromolaxia,CY,33.59,34.88,1538031600,27.3,28.0,61,20,2.1
Nikolskoye,RU,30.79,59.7,1538029800,9.0,9.0,66,75,10.0
Kallithea,GR,23.7,37.96,1538031000,16.5,17.0,55,40,6.2
Shelburne,CA,-80.2,44.08,1538030280,7.83,11.0,100,1,1.0
Beatrice,US,-96.75,40.27,1538031300,12.83,13.3,66,1,3.6
Gat,SN,-16.54,14.69,1538028000,26.0,26.0,94,0,1.0
Rosarito,CO,-75.23,4.91,1538028000,19.0,19.0,100,40,2.1
Vanavara,RU,102.28,60.35,1538032599,5.53,5.53,94,48,3.17
San Andres,PH,122.68,13.32,1538032601,29.68,29.68,96,24,4.92
Salalah,OM,54.1,17.01,1538027400,27.0,27.0,74,20,3.1
Uchiza,PE,-76.46,-8.46,1538032603,19.43,19.43,87,0,0.62
Maceio,BR,-35.74,-9.67,1538031600,21.0,21.0,94,75,1.5
Chadan,RU,91.58,51.29,1538032605,9.83,9.83,56,48,2.57
Kaseda,JP,130.32,31.42,1538028000,25.0,25.0,57,40,4.1
Kirkwall,GB,-2.96,58.98,1538031000,9.0,9.0,100,75,6.2
Venice,US,-82.45,27.1,1538030100,24.78,25.0,94,75,1.5
Klaksvik,FO,-6.59,62.23,1538031000,6.0,6.0,87,92,6.2
Huangmei,CN,115.95,30.1,1538032613,23.18,23.18,80,76,3.47
Mayor Pablo Lagerenza,PY,-60.77,-19.93,1538032614,25.88,25.88,60,44,3.22
Hambantota,LK,81.12,6.12,1538032615,28.48,28.48,94,44,4.12
Trelew,AR,-65.31,-43.25,1538032617,5.18,5.18,71,88,4.07
Maragogi,BR,-35.22,-9.01,1538032618,23.58,23.58,92,68,3.62
Eureka,US,-124.16,40.8,1538031300,8.07,10.0,100,40,1.57
Joshimath,IN,79.57,30.57,1538032620,3.58,3.58,79,0,0.07
Bambous Virieux,MU,57.76,-20.34,1538028000,26.0,26.0,61,40,6.2
Aklavik,CA,-135.01,68.22,1538031600,-5.0,-5.0,92,20,1.5
Voh,NC,164.69,-20.95,1538032623,23.58,23.58,85,24,8.07
Nuuk,GL,-51.74,64.17,1538031000,5.0,5.0,75,92,12.3
Haines Junction,CA,-137.51,60.75,1538032626,-2.63,-2.63,81,8,0.72
Mamallapuram,IN,80.17,12.63,1538031600,33.0,33.0,49,40,4.6
La Peca,PE,-78.44,-5.61,1538032408,17.08,17.08,97,36,0.17
Sao Gabriel,BR,-54.32,-30.34,1538032629,19.43,19.43,94,80,4.72
Cururupu,BR,-44.87,-1.82,1538032631,25.88,25.88,83,88,3.87
Oktyabrskiy,RU,37.97,55.61,1538029800,7.26,8.0,87,90,6.0
Praia,BR,-43.81,-20.25,1538028000,20.0,20.0,56,0,3.1
Gunjur,GM,-16.76,13.18,1538031600,23.0,23.0,100,20,6.47
Moussoro,TD,16.49,13.64,1538032573,24.88,24.88,79,0,1.32
Borovskoy,KZ,64.15,53.8,1538032638,21.18,21.18,40,20,6.67
Zhanaozen,KZ,52.85,43.35,1538032639,19.33,19.33,64,0,5.92
Langsa,ID,97.97,4.47,1538032640,26.23,26.23,93,20,1.27
Beringovskiy,RU,179.32,63.05,1538032641,7.68,7.68,100,92,10.67
Toora-Khem,RU,96.11,52.47,1538032643,6.18,6.18,93,88,2.52
Astoria,US,-123.83,46.19,1538031300,11.1,11.1,96,1,1.22
Kalabo,ZM,22.67,-15.0,1538032645,23.38,23.38,43,68,1.42
Airai,TL,125.41,-8.93,1538032646,29.43,29.43,38,68,0.62
Winslow,GB,-0.88,51.94,1538031360,8.69,12.0,93,0,2.1
Kununurra,AU,128.74,-15.77,1538031600,35.0,35.0,23,75,3.1
Constitucion,MX,-104.67,23.99,1538032656,17.83,17.83,69,80,3.37
Poronaysk,RU,143.1,49.22,1538032657,14.43,14.43,71,24,1.57
Awjilah,LY,21.3,29.14,1538032658,23.13,23.13,82,8,4.42
Dingle,PH,122.67,11.0,1538032659,29.78,29.78,67,76,5.57
Tateyama,JP,137.31,36.66,1538028000,20.0,20.0,72,75,0.5
Shingu,JP,135.99,33.72,1538028000,22.0,22.0,68,75,2.1
Broken Hill,AU,141.45,-31.97,1538032664,27.98,27.98,21,8,6.27
Ola,RU,151.3,59.58,1538029800,14.0,14.0,62,20,4.0
Broome,GB,1.45,52.47,1538031360,12.21,13.1,93,40,2.1
Turukhansk,RU,87.96,65.8,1538032668,10.18,10.18,96,88,7.17
Yichang,CN,111.32,30.77,1538032669,21.98,21.98,92,48,2.12
Hammerfest,NO,23.68,70.66,1538031000,3.0,3.0,69,75,9.8
Akureyri,IS,-18.09,65.68,1538028000,0.0,0.0,80,0,1.22
Naziya,RU,31.59,59.84,1538032672,8.83,8.83,86,48,7.37
Cayenne,GF,-52.33,4.94,1538029800,23.0,23.0,100,36,4.37
Limon,US,-103.69,39.26,1538031300,1.7,1.7,17,1,4.1
Katherine,AU,132.26,-14.47,1538031600,34.0,34.0,20,90,4.1
La Asuncion,EC,-78.74,-1.64,1538032677,3.68,3.68,99,32,0.32
Coquimbo,CL,-71.34,-29.95,1538028000,13.0,13.0,87,90,2.6
Zavetnoye,RU,43.89,47.12,1538032679,12.38,12.38,63,0,2.37
Coro,VE,-69.67,11.41,1538032681,26.18,26.18,92,48,3.57
Rosetta,EG,30.42,31.4,1538028000,26.0,26.0,57,40,3.6
Shunyi,CN,116.65,40.13,1538029800,20.0,20.0,60,88,3.0
Bontang,ID,117.47,0.12,1538032685,28.83,28.83,100,0,3.72
Ancud,CL,-73.83,-41.87,1538032686,7.18,7.18,96,92,2.12
Skowhegan,US,-69.72,44.77,1538029200,17.5,17.8,82,40,4.6
Kahului,US,-156.47,20.89,1538030820,26.39,28.3,94,90,4.1
Vardo,US,-77.74,39.62,1538031300,16.76,18.3,77,1,3.1
Lyuban,BY,28.0,52.8,1538032691,11.08,11.08,82,92,9.62
Peniche,PT,-9.38,39.36,1538031600,20.34,22.0,72,0,1.5
Ahipara,NZ,173.16,-35.17,1538032694,13.03,13.03,82,0,3.92
Baykit,RU,96.39,61.68,1538032695,6.98,6.98,79,0,2.52
Port Lincoln,AU,135.86,-34.72,1538032697,14.93,14.93,89,88,6.37
Sakaiminato,JP,133.23,35.55,1538028000,23.0,23.0,46,75,5.7
Sheridan,US,-105.03,39.65,1538030160,9.74,13.0,28,1,1.5
Baherden,TM,57.43,38.44,1538032700,26.53,26.53,49,0,1.87
Kokstad,ZA,29.42,-30.55,1538032701,15.43,15.43,74,0,1.32
Cherskiy,RU,161.3,68.75,1538032702,4.53,4.53,67,88,2.07
Ponoka,CA,-113.59,52.68,1538031600,5.0,5.0,100,90,3.1
Canakkale,TR,26.41,40.15,1538031000,14.0,14.0,62,75,12.3
Nieuw Amsterdam,SR,-55.08,5.88,1538031600,25.0,25.0,94,40,3.6
Torrington,US,-104.18,42.06,1538031180,9.4,9.4,68,1,3.1
Eyl,SO,49.82,7.98,1538032714,27.23,27.23,78,0,5.57
Shenjiamen,CN,122.3,29.96,1538032715,25.28,25.28,86,0,9.77
Kurya,RU,82.29,51.6,1538032716,19.58,19.58,55,0,2.77
Manica,MZ,32.88,-18.94,1538028000,24.0,24.0,69,0,2.1
Lagos,NG,3.39,6.46,1538028000,24.0,24.0,94,40,1.0
Yulara,AU,130.99,-25.24,1538031600,33.0,33.0,7,0,3.6
Narsaq,GL,-46.05,60.91,1538031000,3.0,3.0,69,92,2.6
Touros,BR,-35.46,-5.2,1538032723,24.73,24.73,90,92,7.17
Srandakan,ID,110.25,-7.94,1538032487,31.13,31.13,48,0,4.27
Karpogory,RU,44.44,64.0,1538032725,5.03,5.03,99,92,5.07
Muros,ES,-9.06,42.77,1538031600,17.0,17.0,82,0,0.5
Los Llanos de Aridane,ES,-17.92,28.66,1538031600,22.0,22.0,88,20,4.6
Faya,SA,42.45,18.39,1538028000,26.0,26.0,21,0,4.1
Lavos,PT,-8.83,40.09,1538031600,19.0,19.0,82,0,0.5
Vagur,FO,-6.81,61.47,1538032734,9.33,9.33,100,76,11.22
Mul,IN,79.68,20.07,1538032735,29.38,29.38,88,56,1.97
Grand Gaube,MU,57.66,-20.01,1538028000,26.0,26.0,61,40,6.2
Aasiaat,GL,-52.87,68.71,1538032737,1.88,1.88,100,68,4.22
Barahona,DO,-71.1,18.21,1538032720,27.53,27.53,100,20,6.17
Mezen,RU,44.24,65.85,1538032739,5.13,5.13,99,92,4.62
Hualmay,PE,-77.61,-11.1,1538032740,11.88,11.88,92,20,1.72
Karratha,AU,116.85,-20.74,1538032741,37.33,37.33,10,0,5.72
Krasnokholmskiy,RU,55.05,55.99,1538032497,9.18,9.18,87,36,3.72
Tamiahua,MX,-97.45,21.28,1538032743,26.18,26.18,100,48,3.52
Shestakovo,RU,103.96,56.49,1538032750,4.23,4.23,100,88,2.77
Saint-Francois,FR,3.91,46.42,1538031600,10.0,10.0,93,0,1.42
Margate,AU,147.26,-43.03,1538031600,19.0,19.0,39,0,6.2
San Juan,PR,-66.12,18.47,1538028780,27.29,27.8,87,75,2.1
Souillac,FR,-0.6,45.6,1538031600,14.55,15.0,71,0,2.6
Abadan,IR,48.26,30.36,1538028000,34.77,36.0,20,0,2.1
El Jicaro,GT,-89.89,14.91,1538032759,19.98,19.98,77,56,0.77
Solnechnyy,RU,136.64,50.72,1538032476,15.98,15.98,53,0,1.97
Tamluk,IN,87.93,22.29,1538031600,32.0,32.0,75,75,1.5
Port Hardy,CA,-127.42,50.7,1538031600,12.0,12.0,81,20,1.5
Cervo,BR,-46.24,-22.19,1538032763,15.08,15.08,88,0,1.77
Buta,CD,24.73,2.79,1538032602,26.73,26.73,88,12,1.27
Nata,CY,32.57,34.78,1538031600,27.45,28.0,61,20,4.6
Veraval,FR,0.71,49.65,1538031600,10.34,13.0,81,0,1.0
Bathsheba,BB,-59.52,13.22,1538028000,27.0,27.0,78,20,6.2
Semey,KZ,80.25,50.41,1538032769,20.13,20.13,56,0,2.47
Yumen,CN,97.04,40.29,1538032770,14.73,14.73,36,0,2.02
Kuzhithurai,IN,77.18,8.32,1538031600,31.0,31.0,66,40,4.1
Shadrinsk,RU,63.63,56.09,1538032772,18.08,18.08,42,88,8.27
Rock Sound,BS,-76.2,24.9,1538032773,28.88,28.88,100,8,7.17
Pacific Grove,US,-121.92,36.62,1538031720,12.58,13.3,93,90,1.5
Ekhabi,RU,142.97,53.51,1538032777,16.63,16.63,57,0,4.57
Grafton,AU,152.93,-29.69,1538032778,18.58,18.58,77,80,1.42
Sukumo,JP,132.72,32.94,1538032779,22.48,22.48,86,76,1.12
Reconquista,AR,-59.64,-29.14,1538032781,18.88,18.88,95,76,2.72
Rio Gallegos,AR,-69.22,-51.62,1538028000,5.0,5.0,56,0,6.2
Manali,IN,77.19,32.25,1538032783,2.93,2.93,42,0,0.52
Mudgee,AU,149.59,-32.6,1538032784,18.63,18.63,64,0,1.97
Yaan,NG,8.57,7.38,1538032785,23.33,23.33,95,36,3.77
San Jose,PH,120.99,15.79,1538032788,28.13,28.13,87,44,1.42
Belyy Yar,RU,91.39,53.6,1538029800,15.0,15.0,82,0,3.0
Yar-Sale,RU,70.83,66.83,1538032791,9.98,9.98,90,44,9.97
Shellbrook,CA,-106.39,53.22,1538028000,2.0,2.0,83,75,2.1
Rocha,UY,-54.34,-34.48,1538032793,13.18,13.18,93,56,4.87
Bonthe,SL,-12.5,7.53,1538032794,22.23,22.23,100,56,1.37
Grand-Santi,GF,-54.38,4.27,1538032796,24.48,24.48,86,0,2.22
Manta,RO,24.1,45.1,1538032798,3.23,3.23,78,0,0.67
Jackson,US,-88.82,35.61,1538031360,18.02,18.3,80,90,3.1
Bandarbeyla,SO,50.81,9.49,1538032800,26.68,26.68,95,0,7.47
Batagay,RU,134.64,67.65,1538032801,0.38,0.38,81,8,2.77
Kubrat,BG,26.5,43.8,1538032803,6.13,6.13,75,0,1.32
Kamalganj,BD,91.86,24.35,1538032804,31.83,31.83,90,44,1.77
Kazanskaya,RU,40.44,45.41,1538032805,12.23,12.23,58,0,2.02
Bereda,ES,-7.54,43.27,1538031600,20.0,20.0,72,0,2.1
Xichang,CN,102.25,27.88,1538032808,15.58,15.58,96,88,0.67
Jaciara,BR,-54.98,-15.95,1538032809,22.78,22.78,92,92,1.27
Mecca,SA,39.83,21.43,1538032248,32.08,32.08,51,0,1.92
Berlevag,NO,29.09,70.86,1538031000,3.97,5.0,80,75,12.3
Yarmouth,GB,-1.5,50.71,1538031000,5.22,8.0,100,90,1.22
Naze,NG,7.07,5.43,1538032814,22.73,22.73,98,80,1.77
Raychikhinsk,RU,129.4,49.8,1538032815,18.18,18.18,47,0,1.67
Kutum,SD,24.66,14.2,1538032816,25.78,25.78,39,88,2.67
Kilindoni,TZ,39.67,-7.91,1538032817,24.23,24.23,100,88,4.77
Camacha,PT,-16.33,33.08,1538031600,21.0,21.0,68,75,6.2
Longyearbyen,NO,15.63,78.22,1538031000,-4.0,-4.0,62,40,6.7
Jiwani,PK,61.74,25.05,1538032821,30.58,30.58,75,0,2.77
Mehran,IR,46.17,33.12,1538028000,28.0,28.0,17,0,2.1
Egvekinot,RU,-179.17,66.32,1538032823,4.43,4.43,99,92,3.12
Uvalde,US,-99.79,29.21,1538031300,21.32,21.7,76,90,3.1
Richards Bay,ZA,32.06,-28.77,1538032826,19.98,19.98,87,48,1.87
Pindiga,NG,10.93,9.98,1538032564,22.23,22.23,95,76,4.02
Xining,CN,101.77,36.62,1538032828,14.53,14.53,53,20,2.22
Lazaro Cardenas,MX,-105.62,28.39,1538032831,18.03,18.03,79,44,3.57
Zhuanghe,CN,122.97,39.7,1538032832,20.18,20.18,99,0,3.72
Sadri,IN,73.45,25.19,1538032833,34.38,34.38,42,0,2.12
Lodwar,KE,35.6,3.12,1538032835,26.28,26.28,58,0,2.32
Helong,CN,116.13,25.94,1538032836,27.13,27.13,56,20,2.17
Aksu,KZ,76.93,52.04,1538029800,23.0,23.0,43,0,2.0
Alugan,PH,125.48,12.22,1538032838,30.83,30.83,79,12,7.17
Kynashiv,UA,28.9,48.67,1538032839,8.48,8.48,58,80,5.72
Jumla,NP,82.18,29.28,1538032840,11.58,11.58,82,20,0.52
Nagar Karnul,IN,78.32,16.48,1538032842,27.23,27.23,84,68,1.87
Brae,GB,-1.35,60.4,1538031000,8.57,9.0,75,75,5.7
Tecoanapa,MX,-99.26,16.99,1538030580,27.0,27.0,78,75,2.1
Fortuna,ES,-1.13,38.18,1538031600,22.25,24.0,68,20,3.1
Geraldton,CA,-86.95,49.72,1538031600,4.0,4.0,100,90,2.1
Burns Lake,CA,-125.76,54.23,1538032849,9.18,9.18,84,32,1.67
Petropavlovsk-Kamchatskiy,RU,158.65,53.05,1538029800,14.0,14.0,44,0,4.0
Koutsouras,GR,25.95,35.03,1538032852,20.58,20.58,100,20,2.47
Port-Gentil,GA,8.78,-0.72,1538028000,26.0,26.0,88,75,2.1
Nisia Floresta,BR,-35.21,-6.09,1538031600,24.0,24.0,78,20,4.1
Lichtenburg,ZA,26.16,-26.15,1538032857,21.08,21.08,25,80,6.02
Djibo,BF,-1.63,14.1,1538032568,22.08,22.08,84,0,1.32
Kvarkeno,RU,59.73,52.08,1538032859,18.53,18.53,33,88,7.12
Tual,ID,132.75,-5.67,1538032860,28.33,28.33,94,12,5.82
Alofi,NU,-169.92,-19.06,1538031600,22.0,22.0,88,0,2.1
Kamyshin,RU,45.4,50.08,1538032638,11.33,11.33,74,0,4.12
Urengoy,RU,78.37,65.96,1538032863,15.38,15.38,76,64,8.17
Grand Baie,MU,57.58,-20.02,1538028000,26.0,26.0,61,40,6.2
Paciran,ID,112.33,-6.9,1538032865,35.68,35.68,34,0,1.22
Qatana,SY,36.09,33.43,1538031000,25.0,25.0,69,20,1.5
Paamiut,GL,-49.67,61.99,1538032868,4.88,4.88,94,92,16.72
Aloleng,PH,119.78,16.13,1538032869,29.13,29.13,92,56,3.72
Merauke,ID,140.4,-8.49,1538032870,32.08,32.08,54,32,8.22
Linhares,BR,-40.06,-19.38,1538032871,20.23,20.23,94,0,2.32
Caravelas,BR,-39.27,-17.73,1538032872,25.18,25.18,100,88,7.02
Emerald,AU,148.16,-23.53,1538032873,30.58,30.58,27,0,2.02
Hassleholm,SE,13.77,56.16,1538031000,13.0,13.0,82,20,6.7
Ouahigouya,BF,-2.42,13.58,1538032875,22.48,22.48,85,0,1.27
Grindavik,IS,-22.43,63.84,1538029800,5.0,5.0,86,75,6.2
Gerash,IR,54.14,27.67,1538028000,32.0,32.0,40,0,1.37
Tautira,PF,-149.15,-17.73,1538031600,23.0,23.0,69,20,1.0
Okhotsk,RU,143.24,59.36,1538032882,11.53,11.53,81,0,2.12
Mount Gambier,AU,140.78,-37.83,1538032883,14.28,14.28,77,88,3.62
Dunedin,NZ,170.5,-45.87,1538032884,6.88,6.88,79,68,2.47
Sitka,US,-99.65,37.17,1538032885,10.28,10.28,65,0,4.42
Tortosa,ES,0.52,40.81,1538031600,16.0,16.0,87,20,2.1
Port-Cartier,CA,-66.88,50.03,1538031600,7.0,7.0,81,20,5.7
Clyde River,CA,-68.59,70.47,1538031600,-5.0,-5.0,85,90,5.7
Anshun,CN,105.93,26.25,1538032891,17.43,17.43,86,88,2.82
Saldanha,PT,-6.55,41.42,1538032892,13.08,13.08,85,24,0.97
Zyryanka,RU,150.89,65.73,1538032893,2.68,2.68,70,32,1.62
Sinnamary,GF,-52.96,5.38,1538032894,27.53,27.53,97,0,6.77
Araouane,ML,-3.53,18.9,1538032895,25.68,25.68,36,68,1.72
Warman,CA,-106.58,52.32,1538031600,2.0,2.0,93,75,3.1
Kaka,TM,59.62,37.35,1538032898,23.88,23.88,37,0,1.67
Tohana,IN,75.9,29.71,1538032900,31.33,31.33,88,0,2.07
Usogorsk,RU,48.71,63.43,1538032901,4.58,4.58,98,92,5.67
Nanortalik,GL,-45.24,60.14,1538032816,4.48,4.48,92,92,5.67
Kerepehi,NZ,175.54,-37.3,1538032903,13.08,13.08,62,56,3.02
Half Moon Bay,US,-122.43,37.46,1538031840,14.48,17.2,93,90,2.1
Treinta y Tres,UY,-54.39,-33.23,1538032905,13.93,13.93,98,92,6.52
Nortelandia,BR,-56.8,-14.45,1538032906,23.23,23.23,88,88,1.22
Sabang,PH,123.58,13.72,1538032907,30.18,30.18,81,56,4.42
Novyy Urengoy,RU,76.63,66.08,1538032683,13.48,13.48,84,36,6.97
Alice Town,BS,-79.3,25.72,1538032910,29.73,29.73,97,36,5.87
Winnemucca,US,-117.74,40.97,1538031360,8.3,8.3,13,1,2.1
Marzuq,YE,46.47,14.4,1538032913,27.28,27.28,17,0,1.47
Santa Barbara,US,-119.7,34.42,1538031420,16.39,18.3,93,90,3.6
Ous,RU,61.52,60.91,1538032885,11.68,11.68,62,48,2.87
Fairbanks,US,-147.72,64.84,1538031480,2.01,3.9,95,1,1.5
Hailar,CN,119.7,49.2,1538032918,18.48,18.48,44,56,8.57
Mamlyutka,KZ,68.54,54.94,1538029800,22.0,22.0,40,0,5.0
Karla,EE,24.93,59.37,1538031000,11.0,11.0,57,40,11.8
Chapais,CA,-74.86,49.78,1538031600,3.0,3.0,86,90,2.6
Sangar,RU,127.47,63.92,1538032923,8.88,8.88,63,88,1.87
Moose Factory,CA,-80.61,51.26,1538031600,5.0,5.0,93,90,4.1
Morondava,MG,44.28,-20.3,1538032927,26.38,26.38,86,12,1.47
Nyurba,RU,118.35,63.29,1538032928,12.03,12.03,51,20,2.32
Maine-Soroa,NE,12.02,13.21,1538032930,23.83,23.83,85,0,1.57
Itaquyry,PY,-55.22,-24.93,1538028000,19.0,19.0,93,90,5.1
Dharchula,IN,80.53,29.85,1538032937,16.88,16.88,67,0,0.77
Opuwo,,13.84,-18.06,1538032939,15.13,15.13,46,0,1.62
Marathon,CA,-86.38,48.72,1538032941,9.03,9.03,92,76,5.32
Tahe,CN,124.71,52.34,1538032942,17.83,17.83,46,0,2.52
Fengzhen,CN,113.15,40.43,1538032943,11.83,11.83,97,92,4.67
Namibe,AO,12.15,-15.19,1538032944,18.88,18.88,100,36,2.72
Balkhash,KZ,74.98,46.84,1538032946,18.08,18.08,72,0,7.27
Cap Malheureux,MU,57.61,-19.98,1538028000,26.0,26.0,61,40,6.2
Nago,IT,10.89,45.88,1538031000,11.52,12.0,76,0,0.5
Bria,CF,21.99,6.54,1538032949,24.33,24.33,88,8,2.07
Kasuga,JP,130.45,33.52,1538029800,26.36,27.0,44,20,7.7
Samarinda,ID,117.14,-0.5,1538032952,29.88,29.88,90,8,1.72
San Cristobal,EC,-78.55,-0.39,1538028000,11.0,11.0,87,75,1.5
Sembakung,ID,117.25,3.82,1538032954,31.68,31.68,65,20,0.97
Tuyen Quang,VN,105.22,21.82,1538032955,25.73,25.73,99,92,1.77
Marshall,US,-87.69,39.39,1538032500,12.5,13.9,92,1,2.6
Suez,EG,32.54,29.97,1538032958,22.48,22.48,74,36,1.62
Ilebo,CD,20.59,-4.33,1538032959,21.98,21.98,97,76,1.22
Arman,RU,150.17,59.7,1538029800,14.0,14.0,62,20,4.0
Bunia,CD,30.25,1.56,1538032962,23.83,23.83,73,0,1.87
Pampas,PE,-74.87,-12.4,1538032964,-1.18,-1.18,92,48,1.77
Noumea,NC,166.46,-22.28,1538031600,21.0,21.0,73,0,8.7
Tchibanga,GA,11.0,-2.92,1538032966,22.23,22.23,97,88,1.17
Xuddur,SO,43.89,4.12,1538032968,25.88,25.88,69,0,5.82
Yeppoon,AU,150.74,-23.13,1538031600,27.0,27.0,44,20,6.2
Makaryev,RU,43.81,57.88,1538032970,3.83,3.83,99,92,8.52
Sydney,AU,151.22,-33.85,1538031600,20.08,21.0,59,0,10.3
Aswan,EG,32.9,24.09,1538032972,29.13,29.13,40,0,4.12
Kharp,RU,65.8,66.82,1538032973,8.68,8.68,95,8,5.77
Kudahuvadhoo,MV,72.89,2.67,1538032974,28.08,28.08,100,64,8.67
Makakilo City,US,-158.09,21.35,1538032320,25.62,26.7,96,90,2.02
Zabaykalsk,CN,117.33,49.64,1538032976,19.23,19.23,39,12,8.37
Mildura,AU,142.16,-34.18,1538032977,24.88,24.88,28,0,5.77
Gandorhun,SL,-10.86,8.44,1538032978,20.03,20.03,98,56,1.32
