City,Country,Lng,Lat,Date,Avg Temp,Max Temp,Humidity,Clouds,Wind speed
East London,ZA,27.91,-33.02,1538056800,22.0,22.0,64,0,11.16
Port Alfred,ZA,26.89,-33.59,1538060920,22.05,22.05,71,12,10.332
Lebu,ET,38.73,8.96,1538056800,19.0,19.0,59,75,18.36
Longyearbyen,NO,15.63,78.22,1538059800,-3.0,-3.0,73,40,27.72
Mataura,NZ,168.86,-46.19,1538060923,-0.46,-0.46,96,8,4.392
Ribeira Grande,PT,-28.7,38.52,1538058600,26.0,26.0,83,20,11.16
New Norfolk,AU,147.06,-42.78,1538058600,12.0,12.0,54,20,18.36
Dores do Indaia,BR,-45.6,-19.46,1538060927,31.1,31.1,43,0,16.452
Nakhon Pathom,TH,100.06,13.82,1538058600,30.0,30.0,79,20,7.5600000000000005
Barrow,AR,-60.23,-38.31,1538060929,11.65,11.65,67,88,20.232
Coquimbo,CL,-71.34,-29.95,1538056800,15.0,15.0,77,75,16.56
Ushuaia,AR,-68.31,-54.81,1538060400,7.33,8.0,33,0,27.72
Khatanga,RU,102.47,71.98,1538060932,4.95,4.95,91,92,30.671999999999997
Coahuayana,MX,-100.35,18.62,1538060933,20.15,20.15,91,8,4.932
Rikitea,PF,-134.97,-23.12,1538060935,22.15,22.15,100,80,27.071999999999996
Bredasdorp,ZA,20.04,-34.53,1538056800,26.0,26.0,31,0,27.72
Torbay,CA,-52.73,47.66,1538056800,18.53,19.0,72,75,20.520000000000003
Yellowknife,CA,-114.38,62.45,1538056800,-7.0,-7.0,79,75,11.16
Severo-Kurilsk,RU,156.12,50.68,1538060823,7.05,7.05,100,0,10.332
Katsuura,JP,134.5,33.93,1538060940,19.4,19.4,93,44,11.232000000000001
Yumen,CN,97.04,40.29,1538060941,6.3,6.3,49,0,13.392000000000001
Hilo,US,-155.08,19.71,1538056560,16.97,23.9,90,1,19.692
Aurillac,FR,2.44,44.93,1538058600,25.51,26.0,20,0,5.4
Ljungby,SE,13.94,56.83,1538059800,16.0,16.0,77,90,27.72
Yatou,CM,9.81,3.63,1538060946,27.5,27.5,96,12,22.571999999999996
Belyy Yar,RU,91.39,53.6,1538058600,13.0,13.0,93,40,9.612
Iqaluit,CA,-68.52,63.75,1538056800,1.0,1.0,59,40,42.480000000000004
Jamestown,AU,138.6,-33.21,1538060949,6.1,6.1,92,0,10.152
Chuy,UY,-53.46,-33.69,1538060951,17.95,17.95,90,44,27.071999999999996
Port Elizabeth,US,-74.98,39.31,1538060100,19.52,20.6,58,90,18.36
Bambous Virieux,MU,57.76,-20.34,1538056800,24.0,24.0,64,40,18.36
Castro,CL,-73.76,-42.48,1538060954,7.8,7.8,100,92,19.332
San Carlos de Bariloche,AR,-71.31,-41.13,1538056800,5.0,5.0,86,75,7.5600000000000005
Ferrol,ES,-8.23,43.48,1538060400,22.74,25.0,88,75,14.76
Grand Gaube,MU,57.66,-20.01,1538056800,24.0,24.0,64,40,18.36
Albany,US,-73.75,42.65,1538060040,16.48,17.2,60,75,5.4719999999999995
Viedma,AR,-62.99,-40.81,1538060963,10.25,10.25,68,92,25.452
Cherskiy,RU,161.3,68.75,1538060964,3.55,3.55,78,12,11.592
Panguna,PG,155.48,-6.32,1538060965,23.7,23.7,86,92,8.352
Bilma,NE,12.92,18.69,1538060966,39.6,39.6,12,0,6.012
Pedernales,EC,-80.05,0.07,1538060968,25.3,25.3,88,24,12.492
Revelstoke,CA,-118.19,50.99,1538058300,9.0,9.0,100,90,1.8719999999999999
Ostrovnoy,RU,39.51,68.05,1538060640,4.5,4.5,99,92,11.232000000000001
Nizhnedevitsk,RU,38.36,51.55,1538058600,8.0,8.0,87,90,21.6
Nanortalik,GL,-45.24,60.14,1538060972,5.05,5.05,92,92,38.772
Anito,PH,125.29,12.45,1538060973,29.2,29.2,93,76,30.131999999999998
Ancud,CL,-73.83,-41.87,1538060975,8.75,8.75,94,92,17.532
Komsomolskiy,RU,63.78,67.55,1538060976,4.7,4.7,84,0,22.392
Busselton,AU,115.35,-33.64,1538060978,12.9,12.9,100,0,34.992000000000004
Kamsack,CA,-101.9,51.56,1538056800,1.0,1.0,86,20,16.56
Kapaa,US,-159.32,22.08,1538058000,23.04,23.3,100,20,7.5600000000000005
Laiyang,CN,120.7,36.98,1538060981,15.5,15.5,79,92,12.492
Upernavik,GL,-56.15,72.79,1538060982,0.8,0.8,100,76,12.851999999999999
Boguchany,RU,97.46,58.38,1538060983,2.65,2.65,86,0,4.572
Kavieng,PG,150.8,-2.57,1538060984,28.4,28.4,100,0,15.371999999999996
Adrar,DZ,-0.29,27.87,1538056800,35.0,35.0,28,40,25.919999999999998
Hermanus,ZA,19.24,-34.42,1538060986,20.05,20.05,55,0,19.692
Hobart,AU,147.33,-42.88,1538058600,12.0,12.0,54,20,18.36
Laguna,MX,-110.01,27.52,1538055780,24.0,24.0,94,5,5.4719999999999995
Saint-Philippe,CA,-73.48,45.36,1538060100,13.5,14.1,58,75,7.0920000000000005
Kodiak,US,-94.76,39.95,1538059980,15.6,15.6,59,1,14.76
Kaitangata,NZ,169.85,-46.28,1538060992,0.65,0.65,74,36,5.4719999999999995
ChengDe,CN,117.93,40.97,1538060993,11.85,11.85,97,92,12.851999999999999
Palauig,PH,119.9,15.44,1538060834,24.65,24.65,100,68,3.8520000000000003
Klaksvik,FO,-6.59,62.23,1538059800,9.0,9.0,66,80,24.12
Qaanaaq,GL,-69.36,77.48,1538060997,-6.36,-6.36,100,8,16.452
Kruisfontein,ZA,24.73,-34.0,1538060998,20.65,20.65,69,0,11.592
Marzuq,YE,46.47,14.4,1538060999,27.05,27.05,15,0,8.712
Mandalgovi,MN,106.27,45.76,1538061001,1.7,1.7,65,0,14.471999999999998
Valparaiso,US,-87.06,41.47,1538058900,13.47,14.0,71,1,5.4
Wajir,KE,40.07,1.75,1538056800,34.0,34.0,36,40,14.76
Geraldton,CA,-86.95,49.72,1538058540,8.0,8.0,93,90,14.76
Kenai,US,-151.26,60.55,1538056560,6.14,6.7,88,90,5.4
Praia da Vitoria,PT,-27.07,38.73,1538056800,24.0,24.0,88,75,22.932
Talnakh,RU,88.39,69.49,1538061008,7.35,7.35,92,92,23.291999999999998
Hasaki,JP,140.83,35.73,1538058600,14.39,15.0,100,75,5.4
Cabo San Lucas,MX,-109.91,22.89,1538055900,24.0,24.0,88,20,2.5919999999999996
Teguise,ES,-13.56,29.06,1538058600,29.0,29.0,54,20,31.32
Tasiilaq,GL,-37.64,65.61,1538059800,2.0,2.0,74,75,9.360000000000001
Salaya,IN,69.6,22.31,1538061013,27.65,27.65,68,0,14.831999999999999
Victoria,BN,115.24,5.28,1538058600,26.51,27.0,88,75,10.332
Bethel,US,-161.76,60.79,1538059980,6.7,6.7,88,90,12.959999999999999
Orlik,RU,99.83,52.51,1538061018,-1.86,-1.86,63,88,5.652
Skofja Loka,SI,14.31,46.17,1538058600,20.07,21.0,39,0,5.4
Saskylakh,RU,114.09,71.97,1538061248,-3.06,-3.06,90,36,22.032
Bluff,AU,149.07,-23.58,1538061249,19.0,19.0,59,24,17.892
Lodwar,KE,35.6,3.12,1538061250,31.2,31.2,38,0,18.971999999999998
Praia,BR,-43.81,-20.25,1538056800,27.33,28.0,51,0,11.16
Sibolga,ID,98.78,1.74,1538061225,21.35,21.35,100,48,1.512
Cheremukhovo,RU,46.23,56.23,1538061256,6.05,6.05,95,92,21.131999999999998
Huarmey,PE,-78.15,-10.07,1538061258,22.75,22.75,53,0,6.372
Naze,NG,7.07,5.43,1538060400,33.0,33.0,55,75,11.16
Chaoyang,CN,120.44,41.58,1538061261,16.35,16.35,67,88,16.092
Tumut,AU,148.22,-35.3,1538061263,8.5,8.5,72,0,7.452
Nikolskoye,RU,30.79,59.7,1538058600,10.0,10.0,57,90,36.0
Vardo,US,-77.74,39.62,1538060100,16.71,18.0,70,90,5.4
Pennathur,IN,79.22,12.25,1538061272,26.8,26.8,80,64,11.592
Sur,OM,59.53,22.57,1538061144,28.95,28.95,93,0,9.972
Ponta do Sol,BR,-46.0,-20.63,1538061276,27.3,27.3,57,68,13.032
Punta Arenas,CL,-70.91,-53.16,1538056800,6.0,6.0,60,0,24.12
Clyde River,CA,-68.59,70.47,1538059140,-2.0,-2.0,92,90,20.520000000000003
Sao Filipe,CV,-24.5,14.9,1538061280,26.4,26.4,100,12,17.352
Lakatoro,VU,167.42,-16.11,1538061281,23.5,23.5,100,92,18.971999999999998
Nioro,GM,-15.05,13.79,1538061282,34.55,34.55,79,24,10.872
Mahanoro,MG,48.8,-19.9,1538061284,21.55,21.55,85,44,7.452
Butaritari,KI,172.79,3.07,1538061285,28.9,28.9,100,0,16.812
Avarua,CK,-159.78,-21.21,1538056800,22.0,22.0,94,75,3.6
Hithadhoo,MV,73.08,-0.6,1538061289,26.8,26.8,100,80,35.352
Atuona,PF,-139.03,-9.8,1538061290,26.05,26.05,100,24,18.791999999999998
Puerto Ayora,EC,-90.35,-0.74,1538056800,23.0,23.0,78,75,27.72
Cape Town,ZA,18.42,-33.93,1538056800,17.0,17.0,77,75,38.88
Axim,GH,-2.24,4.87,1538061258,26.0,26.0,97,68,16.812
Hami,CN,93.51,42.84,1538061295,7.7,7.7,57,0,4.212
Robertsport,LR,-11.37,6.75,1538061296,23.45,23.45,100,92,11.592
Bahia Honda,CU,-83.16,22.9,1538061297,29.45,29.45,77,12,11.772
Chokurdakh,RU,147.9,70.62,1538061298,1.4,1.4,95,88,22.212
Kibala,TD,18.35,9.11,1538061300,33.3,33.3,62,0,7.992
Namtsy,RU,129.66,62.72,1538061302,4.4,4.4,92,64,3.8520000000000003
Burnie,AU,145.91,-41.05,1538061303,11.8,11.8,99,12,30.312
Valentin Gomez Farias,MX,-104.7,24.05,1538055660,15.0,15.0,100,90,7.5600000000000005
Sisimiut,GL,-53.67,66.94,1538061306,1.7,1.7,72,76,7.632000000000001
Arraial do Cabo,BR,-42.02,-22.97,1538056800,30.52,31.0,51,0,25.919999999999998
Carnarvon,ZA,22.13,-30.97,1538061308,24.05,24.05,10,0,19.332
Touros,BR,-35.46,-5.2,1538061309,30.05,30.05,65,0,31.212
Rudnogorsk,RU,103.75,57.27,1538061311,5.0,5.0,100,92,7.812
Winneba,GH,-0.62,5.35,1538056800,28.0,28.0,78,40,24.12
Te Anau,NZ,167.72,-45.41,1538061313,-2.41,-2.41,79,12,5.112
Dikson,RU,80.55,73.51,1538061314,3.8,3.8,97,88,22.752000000000002
Tezu,IN,96.16,27.93,1538061315,17.85,17.85,92,8,2.952
Kahului,US,-156.47,20.89,1538058900,24.4,26.1,97,75,12.959999999999999
Pangnirtung,CA,-65.72,66.15,1538056800,2.0,2.0,55,5,7.5600000000000005
Caravelas,BR,-39.27,-17.73,1538061320,25.45,25.45,99,0,26.171999999999997
Goderich,CA,-81.71,43.74,1538061322,14.2,14.2,86,76,14.652000000000001
Piacabucu,BR,-36.43,-10.41,1538061323,28.65,28.65,58,48,22.212
Tilichiki,RU,166.1,60.47,1538061326,0.85,0.85,84,56,14.831999999999999
Namibe,AO,12.15,-15.19,1538061327,19.6,19.6,100,76,17.712
Vila Franca do Campo,PT,-25.43,37.72,1538058600,24.0,24.0,88,75,11.16
Ucluelet,CA,-125.55,48.94,1538060400,11.0,11.0,93,75,5.292
Sungairaya,ID,108.9,0.7,1538061331,24.8,24.8,96,24,2.5919999999999996
Pathein,MM,94.73,16.78,1538061308,25.75,25.75,89,8,9.072
Ngerengere,TZ,38.13,-6.76,1538061333,23.1,23.1,95,92,6.192
Airai,TL,125.41,-8.93,1538061334,19.15,19.15,84,0,2.5919999999999996
Mazagao,BR,-51.29,-0.12,1538056800,33.0,33.0,52,40,24.12
Kaeo,NZ,173.78,-35.1,1538061089,3.7,3.7,82,0,5.832000000000001
Poum,MK,20.71,41.28,1538058600,17.0,17.0,7,0,9.360000000000001
Taoudenni,ML,-3.98,22.68,1538061340,39.5,39.5,17,8,7.0920000000000005
Henties Bay,NA,14.28,-22.12,1538061341,16.65,16.65,85,0,15.552000000000001
Otradnoye,RU,30.8,59.77,1538058600,10.0,10.0,57,90,36.0
Channel-Port aux Basques,CA,-59.14,47.57,1538061343,12.05,12.05,96,100,29.412
Richards Bay,ZA,32.06,-28.77,1538061345,26.0,26.0,67,92,11.412
Kamaishi,JP,141.86,39.28,1538061346,14.9,14.9,100,92,10.512
Lompoc,US,-120.46,34.64,1538060160,12.71,16.7,96,90,7.632000000000001
Luau,CD,22.23,-10.7,1538061348,32.35,32.35,29,8,5.652
Srednekolymsk,RU,153.71,67.46,1538061349,0.05,0.05,93,88,5.112
Peterhead,AU,138.5,-34.83,1538060400,13.0,13.0,82,20,18.36
Lavrentiya,RU,-170.99,65.58,1538061352,5.85,5.85,96,24,15.732
Sept-Iles,CA,-66.38,50.2,1538056800,10.0,10.0,53,20,20.520000000000003
Wad Rawah,SD,33.13,15.16,1538061355,35.4,35.4,38,0,5.112
San Isidro,PH,121.63,16.74,1538061357,24.15,24.15,87,32,4.392
Vaini,IN,74.49,15.34,1538061358,23.15,23.15,94,48,3.8520000000000003
Cockburn Town,TC,-71.14,21.46,1538061354,28.55,28.55,97,80,26.171999999999997
Cayenne,GF,-52.33,4.94,1538058600,32.0,32.0,59,40,18.36
Chumikan,RU,135.31,54.72,1538061361,12.35,12.35,64,0,15.191999999999998
Tuktoyaktuk,CA,-133.03,69.44,1538060400,-1.0,-1.0,92,90,37.08
Port Macquarie,AU,152.91,-31.43,1538060400,10.0,10.0,100,0,5.4
Mahebourg,MU,57.7,-20.41,1538056800,24.0,24.0,64,40,18.36
Sola,NO,5.65,58.89,1538059800,11.0,11.0,81,75,42.480000000000004
Binzhou,CN,117.96,37.38,1538061369,17.45,17.45,49,92,15.012
Tuatapere,NZ,167.69,-46.13,1538061370,5.45,5.45,100,20,9.972
Guerrero Negro,MX,-114.04,27.97,1538061372,20.3,20.3,95,12,7.0920000000000005
Ocos,GT,-92.19,14.51,1538055720,25.0,25.0,88,90,3.8520000000000003
Saint Paul,US,-93.1,44.95,1538060100,13.52,14.0,61,90,7.5600000000000005
Wattegama,LK,80.68,7.35,1538061375,22.1,22.1,96,48,5.112
Tiksi,RU,128.87,71.64,1538061376,-0.41,-0.41,96,80,12.672
Aksu,KZ,76.93,52.04,1538058600,13.0,13.0,82,0,14.4
Berdigestyakh,RU,126.7,62.1,1538061118,3.65,3.65,88,68,7.452
La Ronge,CA,-105.3,55.1,1538058360,1.0,1.0,80,75,22.32
Sungaipenuh,ID,101.38,-2.08,1538061384,18.9,18.9,94,8,1.6919999999999997
Kiama,AU,150.86,-34.67,1538056800,10.0,10.0,81,0,12.959999999999999
Sabha,LY,14.43,27.03,1538061386,28.2,28.2,42,20,21.671999999999997
Sistranda,NO,8.83,63.73,1538059800,6.0,6.0,93,75,20.520000000000003
Pevek,RU,170.27,69.7,1538061388,6.2,6.2,93,44,24.192
Fortuna,ES,-1.13,38.18,1538060400,26.32,27.0,47,20,18.36
Boyabat,TR,34.77,41.47,1538059800,17.0,17.0,55,75,11.16
Saint George,GR,22.34,39.45,1538059800,15.0,15.0,58,75,11.16
Tansen,NP,83.55,27.87,1538061212,26.65,26.65,71,20,4.392
Jalu,LY,21.55,29.03,1538061395,24.7,24.7,68,80,24.012
Vao,EE,26.19,59.1,1538061397,10.35,10.35,62,64,25.812
Salta,AR,-65.41,-24.79,1538056800,27.0,27.0,57,40,9.360000000000001
Anderson,US,-82.65,34.51,1538060160,23.59,25.0,87,90,5.4
Orcopampa,PE,-72.34,-15.27,1538061401,9.65,9.65,21,12,5.4719999999999995
Padang,ID,100.36,-0.92,1538061403,26.85,26.85,100,80,1.8719999999999999
Ponta Delgada,PT,-25.67,37.73,1538060400,24.0,24.0,88,75,11.16
Turinskaya Sloboda,RU,64.39,57.62,1538061405,12.15,12.15,99,100,10.332
Payo,ID,103.64,-3.75,1538061406,29.3,29.3,55,48,13.572
Dunedin,NZ,170.5,-45.87,1538061223,-0.16,-0.16,89,8,4.752000000000001
Mount Gambier,AU,140.78,-37.83,1538061408,10.6,10.6,84,92,8.532
Mnogovershinnyy,RU,139.92,53.94,1538061411,4.95,4.95,79,0,5.4719999999999995
Gat,SN,-16.54,14.69,1538061412,35.55,35.55,64,0,13.212
Charleville-Mezieres,FR,4.72,49.77,1538058300,21.0,21.0,43,5,14.76
Russell,AR,-68.8,-33.01,1538056800,11.0,11.0,100,75,7.5600000000000005
Ust-Nera,RU,143.24,64.57,1538061180,-5.46,-5.46,99,80,3.492
Kijang,KR,129.21,35.24,1538056800,18.0,18.0,63,0,1.8
Sabang,PH,123.58,13.72,1538061419,26.45,26.45,96,32,10.332
Faanui,PF,-151.75,-16.48,1538061420,25.2,25.2,100,88,20.052
Emmett,US,-116.5,43.87,1538059980,6.41,9.4,10,1,1.8719999999999999
Krasnyy Chikoy,RU,108.75,50.36,1538061415,1.9,1.9,80,92,11.232000000000001
San Policarpo,PH,125.51,12.18,1538061424,28.3,28.3,88,32,20.952
Souillac,FR,-0.6,45.6,1538060400,28.45,29.0,35,0,9.360000000000001
Port Lincoln,AU,135.86,-34.72,1538061426,12.25,12.25,100,44,16.092
Klamath Falls,US,-121.78,42.22,1538059980,5.6,5.6,11,1,4.212
Muncar,ID,114.34,-8.43,1538061429,23.25,23.25,97,12,6.012
Provideniya,RU,-173.23,64.42,1538061430,7.45,7.45,98,80,29.052
Warmbad,DE,13.08,50.67,1538060400,21.67,23.0,37,0,11.16
Noumea,NC,166.46,-22.28,1538058600,18.0,18.0,82,0,3.6
Dingle,PH,122.67,11.0,1538061440,26.7,26.7,75,32,13.572
Wuhan,CN,114.3,30.6,1538056800,22.0,22.0,68,0,7.2
Sinaloa,MX,-115.28,32.55,1538060220,25.94,27.2,25,1,9.360000000000001
Alice Springs,AU,133.88,-23.7,1538060400,14.0,14.0,11,0,12.312000000000001
Tornio,FI,27.27,61.12,1538059800,8.65,9.0,65,90,22.32
Lorengau,PG,147.27,-2.02,1538061453,28.5,28.5,100,64,9.612
Wenling,CN,121.38,28.38,1538061454,23.45,23.45,100,56,26.532
Mayo,CA,-135.9,63.59,1538056800,-3.0,-3.0,92,40,4.212
Abdanan,IR,47.42,32.99,1538061456,30.5,30.5,9,0,6.192
Mujiayingzi,CN,118.78,42.12,1538061459,10.95,10.95,87,92,23.112000000000002
Uchaly,RU,59.38,54.32,1538061460,6.75,6.75,80,88,8.352
Vila Velha,BR,-38.6,-3.71,1538060400,31.0,31.0,55,40,40.68
Meulaboh,ID,96.13,4.14,1538061463,26.4,26.4,100,20,7.0920000000000005
El Vigia,MX,-109.72,26.85,1538055780,24.0,24.0,94,5,5.4719999999999995
Narasannapeta,IN,84.04,18.42,1538061466,25.8,25.8,82,0,6.732000000000001
Humaita,AR,-65.37,-24.93,1538056800,27.0,27.0,57,40,9.360000000000001
Majene,ID,118.97,-3.54,1538061469,29.0,29.0,91,0,20.412
Baruun-Urt,MN,113.28,46.68,1538061370,6.2,6.2,98,88,7.812
Bilibino,RU,166.44,68.06,1538061471,4.05,4.05,87,88,11.232000000000001
Ilulissat,GL,-51.1,69.22,1538059800,2.0,2.0,64,40,12.959999999999999
Yola,NG,12.45,9.26,1538061479,32.45,32.45,59,0,5.832000000000001
Thunder Bay,CA,-89.26,48.41,1538060400,11.0,11.0,81,90,12.959999999999999
Mar del Plata,AR,-67.52,-46.43,1538061481,7.35,7.35,81,92,24.192
Mashhad,IR,59.61,36.3,1538058600,22.0,22.0,41,0,11.16
Chatra,IN,84.87,24.21,1538060400,29.0,29.0,79,0,4.572
Batagay-Alyta,RU,130.41,67.8,1538061485,-6.71,-6.71,85,76,4.752000000000001
Nantucket,US,-70.1,41.28,1538058900,18.68,19.0,82,75,27.72
Vestmannaeyjar,IS,-20.27,63.44,1538060400,7.0,7.0,87,75,37.08
Kavaratti,IN,72.64,10.57,1538061489,28.9,28.9,100,44,12.851999999999999
Xapuri,BR,-68.5,-10.65,1538056800,30.0,30.0,66,20,11.16
Mandera,ET,41.86,3.94,1538061493,33.9,33.9,36,48,15.732
Bonavista,CA,-53.11,48.65,1538061494,15.9,15.9,77,48,45.432
Kamwenge,UG,30.45,0.19,1538061495,22.2,22.2,83,8,5.832000000000001
Karratha,AU,116.85,-20.74,1538061496,21.85,21.85,34,0,14.652000000000001
Guiyang,CN,106.71,26.58,1538056800,15.0,15.0,93,90,10.8
Panaba,MX,-88.27,21.28,1538061498,29.25,29.25,84,0,6.372
Fryanovo,RU,38.45,56.13,1538058600,11.0,11.0,57,0,28.8
Thompson,CA,-97.86,55.74,1538060400,0.0,0.0,100,75,9.360000000000001
Shimoda,JP,138.93,34.7,1538061502,20.3,20.3,100,0,11.952
Pirgos,GR,25.72,35.12,1538059800,21.0,21.0,83,75,9.360000000000001
Takoradi,GH,-1.75,4.89,1538061504,25.55,25.55,92,64,10.332
Katherine,AU,132.26,-14.47,1538060400,27.0,27.0,32,40,11.16
Sibi,PK,67.88,29.55,1538061513,29.55,29.55,33,24,8.712
Silikatnyy,RU,48.33,53.99,1538056800,6.0,6.0,87,90,36.0
Ketchikan,US,-131.65,55.34,1538060160,12.4,12.8,96,90,14.76
Georgetown,GY,-58.16,6.8,1538056800,31.0,31.0,58,40,29.52
Yar-Sale,RU,70.83,66.83,1538061391,8.85,8.85,94,36,16.452
Preobrazheniye,RU,133.91,42.9,1538061521,6.55,6.55,96,48,1.332
Rio Grande,BR,-52.1,-32.03,1538056800,18.0,18.0,100,90,18.36
Nadym,RU,72.51,65.53,1538061284,9.05,9.05,73,68,11.772
Kamiiso,JP,140.65,41.82,1538061525,11.9,11.9,95,0,8.172
Acapulco,MX,-99.88,16.86,1538055660,27.0,27.0,78,75,5.4
Ust-Maya,RU,134.54,60.42,1538061529,2.3,2.3,92,8,6.192
Casa Grande,US,-111.76,32.88,1538060160,26.3,27.8,41,1,5.4
Meadow Lake,CA,-108.44,54.13,1538056800,0.0,0.0,61,75,9.360000000000001
Rawson,AR,-65.11,-43.3,1538061518,8.2,8.2,78,92,25.992
Saldanha,PT,-6.55,41.42,1538061534,28.9,28.9,38,0,6.012
Mogadishu,SO,45.34,2.04,1538056800,28.0,28.0,78,75,20.520000000000003
Aklavik,CA,-135.01,68.22,1538060400,-6.0,-6.0,92,20,11.052
Pisco,PE,-76.2,-13.71,1538056800,22.0,22.0,30,90,5.4
Grindavik,IS,-22.43,63.84,1538058600,6.39,7.0,70,75,31.32
Ixtapa,MX,-105.21,20.71,1538055780,24.0,24.0,100,90,4.212
Mitsamiouli,KM,43.28,-11.38,1538056800,28.0,28.0,58,20,24.12
Vostok,RU,135.83,46.45,1538061542,1.85,1.85,84,32,3.132
Vidalia,US,-91.43,31.57,1538059680,22.0,22.0,94,90,11.16
Barra,BR,-43.14,-11.09,1538061545,32.95,32.95,32,0,22.212
Yulara,AU,130.99,-25.24,1538060400,20.0,20.0,14,92,5.4
Masallatah,LY,14.0,32.62,1538061548,17.05,17.05,86,92,19.332
Banda Aceh,ID,95.32,5.56,1538061549,23.3,23.3,100,24,3.8520000000000003
Vinukonda,IN,79.74,16.05,1538061550,26.0,26.0,83,12,9.432
Murmashi,RU,32.82,68.82,1538058600,4.0,4.0,80,40,21.6
Gunnedah,AU,150.25,-30.98,1538060400,9.0,9.0,57,0,7.5600000000000005
Fare,PF,-151.02,-16.7,1538061555,24.95,24.95,100,32,17.171999999999997
Moss Vale,AU,150.37,-34.55,1538056800,10.0,10.0,81,0,12.959999999999999
Sitka,US,-99.65,37.17,1538061557,13.5,13.5,61,0,13.212
Alta Floresta,BR,-56.08,-9.87,1538056800,27.0,27.0,83,20,7.5600000000000005
Salon,IN,81.45,26.03,1538061684,27.25,27.25,75,0,6.372
Dzhebariki-Khaya,RU,135.8,62.22,1538061685,5.65,5.65,84,88,8.352
Maraba,BR,-49.1,-5.35,1538056800,32.0,32.0,55,75,12.959999999999999
Goundi,TD,17.37,9.36,1538061687,32.2,32.2,64,8,9.251999999999999
Port-Cartier,CA,-66.88,50.03,1538060400,11.0,11.0,53,20,18.36
Mityana,UG,32.05,0.4,1538060400,27.0,27.0,57,20,9.360000000000001
Cidreira,BR,-50.22,-30.17,1538061692,21.65,21.65,95,76,11.412
Lagos,NG,3.39,6.46,1538056800,31.0,31.0,70,75,9.360000000000001
Gizo,IL,34.94,31.8,1538059800,28.48,29.0,51,0,20.520000000000003
Taltal,CL,-70.49,-25.41,1538061697,18.15,18.15,74,20,2.052
Husavik,CA,-96.99,50.56,1538061703,6.8,6.8,100,100,17.892
Jalostotitlan,MX,-102.47,21.2,1538059500,20.0,20.0,56,40,7.5600000000000005
Gore,ET,35.53,8.15,1538061706,22.8,22.8,83,12,3.132
Amalapuram,IN,82.0,16.58,1538061708,27.35,27.35,78,0,9.072
Siniscola,IT,9.69,40.57,1538059800,25.0,25.0,33,0,11.16
Road Town,VG,-64.62,18.42,1538056800,29.58,30.0,79,40,14.76
Lata,IN,78.62,30.78,1538061713,12.35,12.35,100,12,2.5919999999999996
Bereda,ES,-7.54,43.27,1538060400,20.0,20.0,88,75,14.76
Mayumba,GA,10.65,-3.44,1538061715,24.7,24.7,96,68,15.732
Xingyi,CN,102.82,24.19,1538061716,17.35,17.35,99,88,3.8520000000000003
Berlevag,NO,29.09,70.86,1538059800,3.39,5.0,65,75,35.28
Boende,CD,20.88,-0.28,1538061719,25.85,25.85,86,68,4.392
San Miguel,AR,-58.72,-34.54,1538056800,18.01,19.0,68,75,27.72
Mutsu,JP,141.2,41.29,1538055780,15.0,15.0,87,75,16.56
Nago,IT,10.89,45.88,1538059800,20.25,24.0,33,0,3.6
Ust-Omchug,RU,149.63,61.13,1538061724,-2.81,-2.81,83,68,4.212
Oksfjord,NO,22.35,70.24,1538059800,3.34,4.0,100,75,31.32
Itoman,JP,127.67,26.12,1538060160,27.17,29.0,85,75,40.68
Colac,AU,143.59,-38.34,1538061727,10.7,10.7,84,68,9.792
Lagunas,PE,-75.68,-5.23,1538061729,28.4,28.4,86,8,4.932
Veinticinco de Mayo,AR,-54.75,-27.38,1538061731,23.05,23.05,96,80,6.912000000000001
Hastings,NZ,176.84,-39.64,1538061628,7.95,7.95,100,92,2.052
Sangar,RU,127.47,63.92,1538061734,5.2,5.2,97,92,5.112
Chicama,PE,-79.15,-7.84,1538056800,17.0,17.0,88,90,14.76
Roald,NO,6.12,62.58,1538059800,6.32,7.0,87,75,11.16
Nhulunbuy,AU,136.78,-12.18,1538060400,21.0,21.0,88,0,18.071999999999996
Butterworth,MY,100.37,5.4,1538060400,27.51,28.0,88,75,5.4
Tigil,RU,158.67,57.8,1538061741,3.15,3.15,89,12,13.931999999999999
Beaverlodge,CA,-119.43,55.21,1538060400,5.0,5.0,86,75,5.4
Esperance,TT,-61.45,10.24,1538060400,30.0,30.0,74,40,11.16
Narsaq,GL,-46.05,60.91,1538059800,4.64,7.0,93,75,3.6
Nelson Bay,AU,152.14,-32.72,1538060400,13.0,13.0,87,0,9.360000000000001
Nome,US,-94.42,30.04,1538060100,23.12,24.4,85,90,9.360000000000001
Newport,GB,-3.0,51.59,1538059800,19.53,22.0,34,20,18.36
Mangrol,IN,76.51,25.33,1538061749,25.8,25.8,54,8,8.532
Podor,MR,-14.96,16.65,1538061750,38.45,38.45,35,0,21.491999999999997
Trapani,IT,12.54,38.02,1538060100,21.89,23.0,53,40,31.32
Dukat,RS,22.31,42.44,1538061753,12.0,12.0,31,0,5.4719999999999995
Calgary,CA,-114.06,51.05,1538060400,0.97,2.0,93,90,12.959999999999999
Kloulklubed,PW,134.26,7.04,1538059800,26.0,26.0,88,75,7.5600000000000005
Palaikastron,GR,26.25,35.2,1538061757,22.15,22.15,100,64,8.172
Paita,PE,-81.11,-5.09,1538056800,17.0,17.0,290,0,31.32
Yerbogachen,RU,108.01,61.28,1538061759,6.05,6.05,94,88,5.4719999999999995
Moyale,ET,39.05,3.52,1538061761,23.75,23.75,66,56,13.212
Canico,PT,-16.85,32.63,1538060400,23.87,25.0,61,20,27.72
Beringovskiy,RU,179.32,63.05,1538061764,7.7,7.7,96,92,31.032
Groningen,NL,6.57,53.22,1538060100,19.62,21.0,60,75,20.520000000000003
Sumbe,AO,13.84,-11.2,1538061766,23.75,23.75,89,44,13.212
Kununurra,AU,128.74,-15.77,1538060400,24.0,24.0,64,40,5.4
Aurangabad,IN,75.33,19.87,1538061769,24.55,24.55,86,68,7.992
Bembibre,ES,-6.42,42.62,1538060400,27.0,27.0,32,20,9.360000000000001
Morondava,MG,44.28,-20.3,1538061771,28.8,28.8,69,12,13.212
Aguas Formosas,BR,-40.94,-17.08,1538061772,29.4,29.4,46,0,15.732
Atherton,GB,-2.49,53.52,1538059800,16.33,17.0,48,0,25.919999999999998
Talara,PE,-81.27,-4.58,1538056800,17.0,17.0,290,0,31.32
Angoram,PG,144.07,-4.06,1538061775,24.35,24.35,96,36,4.212
Nouakchott,MR,-15.98,18.08,1538061777,31.55,31.55,76,0,11.772
Bubaque,GW,-15.83,11.28,1538060400,32.0,32.0,62,0,5.4
Deputatskiy,RU,139.9,69.3,1538061779,-5.81,-5.81,82,88,4.752000000000001
Eskil,TR,33.41,38.4,1538061780,18.8,18.8,68,0,8.892
Blagoyevo,RU,47.92,63.37,1538061708,4.05,4.05,96,92,13.751999999999999
Tura,IN,90.21,25.52,1538061782,23.95,23.95,99,68,5.292
Mayor Pablo Lagerenza,PY,-60.77,-19.93,1538061783,29.35,29.35,99,0,7.992
Pacific Grove,US,-121.92,36.62,1538060940,11.12,12.2,100,90,4.212
Lokosovo,RU,74.84,61.13,1538061786,14.8,14.8,61,20,14.831999999999999
Wonthaggi,AU,145.59,-38.6,1538061787,10.5,10.5,94,76,6.192
Bonnyville,CA,-110.74,54.27,1538060400,0.0,0.0,77,75,18.36
Minot,US,-101.3,48.23,1538060040,5.42,6.1,11,90,40.68
Estevan,CA,-102.99,49.14,1538060400,3.0,3.0,77,90,25.919999999999998
Nueva Gerona,CU,-82.8,21.88,1538061572,29.85,29.85,85,48,15.732
Verkhnedneprovskiy,RU,33.35,54.98,1538061793,11.3,11.3,60,64,34.272
Miri,NG,9.75,10.31,1538061794,31.65,31.65,57,0,8.172
Villamaria,CO,-77.18,1.6,1538056800,18.0,18.0,82,40,7.5600000000000005
Rajshahi,BD,88.59,24.37,1538061796,26.7,26.7,94,8,6.912000000000001
Xinzhou,CN,112.73,38.41,1538061798,4.6,4.6,85,0,6.552
San Patricio,PY,-56.83,-26.98,1538061799,24.7,24.7,83,68,5.4719999999999995
Keti Bandar,PK,67.45,24.14,1538061800,27.3,27.3,97,0,21.671999999999997
La Grande,US,-118.09,45.32,1538060160,3.33,4.4,13,1,5.4
Antofagasta,CL,-70.4,-23.65,1538056800,16.0,16.0,59,75,9.360000000000001
Dire,ET,38.92,9.18,1538060400,19.0,19.0,55,75,11.16
Sete,NP,86.44,27.58,1538061805,11.1,11.1,100,80,0.9720000000000001
Key West,US,-96.78,47.93,1538060100,8.53,9.4,74,75,31.32
Voznesenye,RU,35.48,61.02,1538061807,7.55,7.55,100,68,34.992000000000004
Raudeberg,NO,5.14,61.99,1538059800,6.33,8.0,87,75,33.480000000000004
Mlowo,TZ,33.0,-9.01,1538061810,28.4,28.4,27,56,17.712
Simpang,MY,100.71,4.82,1538060400,25.48,26.0,88,75,5.112
Sabya,YE,43.1,16.19,1538061812,34.85,34.85,28,0,11.772
Bodden Town,KY,-81.25,19.28,1538060400,30.0,30.0,84,40,14.76
Puerto Palomas,US,-107.63,31.78,1538059980,18.9,18.9,65,1,7.272
Shu,KZ,73.76,43.6,1538061815,18.8,18.8,36,80,18.071999999999996
Sinegorye,RU,150.53,62.09,1538061818,-1.91,-1.91,93,92,4.032000000000001
Key Largo,US,-80.45,25.09,1538060520,31.38,31.7,70,20,25.919999999999998
Paidha,UG,30.99,2.42,1538061820,29.3,29.3,53,24,6.012
Zhigansk,RU,123.37,66.77,1538061822,2.95,2.95,93,88,13.572
Soe,EE,26.05,57.91,1538059800,12.0,12.0,50,24,27.72
Norman Wells,CA,-126.83,65.28,1538060400,-3.0,-3.0,92,75,3.6
Yerofey Pavlovich,RU,121.97,53.97,1538061537,7.05,7.05,68,0,7.992
Mahibadhoo,MV,72.97,3.78,1538061829,28.35,28.35,100,76,33.012
Bitung,ID,125.19,1.44,1538060400,26.0,26.0,69,20,11.16
La Palma,CO,-74.39,5.36,1538061833,22.95,22.95,87,36,4.392
Aktau,KZ,51.16,43.65,1538058600,14.0,14.0,62,0,14.4
Wajima,JP,136.9,37.4,1538061835,17.55,17.55,100,88,7.272
Payson,US,-111.73,40.04,1538060160,11.7,13.5,9,1,2.772
Sambava,MG,50.17,-14.27,1538061837,24.15,24.15,100,24,28.692
Okhotsk,RU,143.24,59.36,1538061839,5.7,5.7,100,56,6.732000000000001
Guajara,BR,-47.54,-0.85,1538061841,28.85,28.85,89,0,27.071999999999996
Nuuk,GL,-51.74,64.17,1538059800,5.0,5.0,86,90,31.32
Kisanga,CD,27.4,-11.72,1538061844,29.8,29.8,33,20,11.412
Lagoa,PT,-8.45,37.14,1538060400,28.0,28.0,54,20,22.32
Hovd,NO,10.7,63.83,1538059800,6.0,6.0,93,75,20.520000000000003
Tecoanapa,MX,-99.26,16.99,1538059440,28.0,28.0,74,20,9.360000000000001
Flinders,AU,150.85,-34.58,1538056800,10.0,10.0,81,0,12.959999999999999
Alofi,NU,-169.92,-19.06,1538060400,22.0,22.0,94,80,9.360000000000001
Cabedelo,BR,-34.84,-6.97,1538056800,29.0,29.0,62,75,29.52
Luderitz,NA,15.16,-26.65,1538061852,15.95,15.95,83,0,29.412
Port Hedland,AU,118.58,-20.31,1538060400,21.0,21.0,64,0,14.76
Thinadhoo,MV,72.93,0.53,1538061854,27.0,27.0,100,92,43.632
Bayan,MN,107.54,47.25,1538061855,-2.11,-2.11,76,0,26.532
Haines Junction,CA,-137.51,60.75,1538061856,-4.36,-4.36,86,36,2.772
Bonthe,SL,-12.5,7.53,1538061858,25.65,25.65,93,56,8.892
Karatau,KZ,70.46,43.18,1538061859,17.45,17.45,37,48,6.012
Icod de los Vinos,ES,-16.71,28.37,1538060400,26.0,28.0,60,20,37.08
Tokur,RU,132.9,53.13,1538061861,2.6,2.6,82,44,3.492
Clinton,CA,-81.54,43.62,1538061867,14.2,14.2,86,76,14.652000000000001
Jevnaker,NO,10.38,60.24,1538061869,7.75,7.75,100,80,4.392
Pangody,RU,74.49,65.85,1538061872,7.35,7.35,79,20,10.872
Umm Kaddadah,SD,26.69,13.6,1538061874,35.05,35.05,27,0,10.152
Kieta,PG,155.63,-6.22,1538061876,24.2,24.2,100,32,11.232000000000001
Porto Novo,BR,-45.44,-23.68,1538056800,28.0,28.0,58,0,7.5600000000000005
Dhidhdhoo,MV,73.1,6.88,1538061614,27.3,27.3,100,36,15.012
Samarai,PG,150.67,-10.62,1538061880,25.15,25.15,100,92,22.932
Broken Hill,AU,141.45,-31.97,1538061881,13.8,13.8,57,8,16.812
Faya,SA,42.45,18.39,1538056800,28.52,29.0,15,75,31.32
Wuwei,CN,102.64,37.93,1538061883,1.65,1.65,82,0,5.112
Fougeres,FR,-1.2,48.35,1538060400,27.47,28.0,34,0,7.5600000000000005
Tamale,GH,-0.84,9.4,1538061886,31.15,31.15,81,32,7.272
Petauke,ZM,31.33,-14.25,1538061888,34.55,34.55,16,0,16.452
Arman,RU,150.17,59.7,1538056800,5.0,5.0,100,40,7.2
Pitimbu,BR,-34.81,-7.47,1538056800,29.0,29.0,62,75,29.52
Arlit,NE,7.39,18.74,1538061892,40.5,40.5,12,12,8.352
Inhambane,MZ,35.38,-23.87,1538056800,28.0,28.0,78,20,22.32
Yablonovo,RU,37.36,50.85,1538058600,10.0,10.0,71,75,25.2
Mao,DO,-71.08,19.55,1538060400,30.0,30.0,62,40,12.959999999999999
Atar,MR,-13.05,20.52,1538061898,38.65,38.65,20,0,12.851999999999999
Salalah,OM,54.1,17.01,1538061868,25.0,25.0,97,0,15.012
Chernyshevskiy,RU,112.47,63.01,1538061613,5.65,5.65,85,88,7.992
Inta,RU,60.13,66.04,1538061902,5.15,5.15,78,0,8.172
Derzhavinsk,KZ,66.31,51.1,1538061903,17.0,17.0,44,0,18.432
Orumiyeh,IR,45.08,37.55,1538058600,23.0,23.0,35,20,7.5600000000000005
Port Jervis,US,-74.69,41.38,1538060160,17.64,18.9,65,1,11.16
Port Hardy,CA,-127.42,50.7,1538060400,13.0,13.0,93,40,11.16
Yamada,JP,137.08,36.58,1538056800,17.0,17.0,88,75,7.5600000000000005
Port Blair,IN,92.75,11.67,1538061909,28.35,28.35,100,0,6.012
Aksha,RU,113.29,50.28,1538061910,2.75,2.75,97,92,23.471999999999998
Awbari,LY,12.77,26.59,1538061912,30.65,30.65,35,8,15.552000000000001
Viani,CO,-73.99,5.76,1538061913,21.05,21.05,87,64,4.752000000000001
Avera,US,-82.53,33.19,1538061300,26.88,28.0,78,75,11.16
Grass Valley,US,-121.06,39.22,1538060280,18.49,24.0,15,1,4.032000000000001
Portland,US,-122.67,45.52,1538060160,11.67,15.0,86,20,5.4
Juegang,CN,121.18,32.31,1538061919,20.45,20.45,100,8,12.492
Kitimat,CA,-128.69,54.02,1538060400,12.0,12.0,93,90,2.952
Svetlaya,RU,138.33,46.54,1538061681,10.3,10.3,100,68,3.8520000000000003
Parabel,RU,81.5,58.71,1538061927,11.75,11.75,75,0,5.112
Prince Rupert,CA,-130.32,54.32,1538060760,12.0,12.0,100,90,2.5919999999999996
Las Margaritas,MX,-91.98,16.32,1538061930,19.5,19.5,85,56,5.652
Moose Factory,CA,-80.61,51.26,1538060400,6.0,6.0,93,90,20.520000000000003
Mikhaylovka,RU,103.29,52.96,1538061938,3.8,3.8,89,56,9.072
Leningradskiy,RU,178.42,69.38,1538061939,5.3,5.3,91,48,20.592
Rabo de Peixe,PT,-25.58,37.8,1538060400,24.0,24.0,88,75,11.16
Naliya,IN,68.83,23.26,1538061942,26.4,26.4,59,0,12.851999999999999
Callaway,US,-95.91,46.98,1538061300,9.61,11.0,93,75,14.76
Devils Lake,US,-98.87,48.11,1538060160,5.82,6.0,75,90,29.52
Baykit,RU,96.39,61.68,1538061945,5.0,5.0,85,100,4.212
Fukagawa,JP,142.05,43.72,1538061946,9.15,9.15,94,88,4.032000000000001
Aljezur,PT,-8.8,37.31,1538061950,24.8,24.8,81,12,8.712
Severnoye,RU,52.54,54.09,1538061951,8.7,8.7,61,92,28.332
Huangnihe,CN,128.02,43.56,1538061952,2.95,2.95,82,0,3.6719999999999997
Goulburn,AU,149.72,-34.75,1538061953,6.35,6.35,74,0,9.612
Luanda,AO,13.24,-8.83,1538060400,25.0,25.0,78,75,14.76
Busayra,JO,35.61,30.74,1538061956,26.55,26.55,52,0,3.8520000000000003
Jiblah,YE,44.15,13.92,1538061957,25.3,25.3,14,0,5.4719999999999995
Kirakira,SB,161.92,-10.46,1538061958,25.85,25.85,100,92,24.192
Macenta,GN,-9.47,8.55,1538061959,21.2,21.2,99,92,5.112
Buraydah,SA,43.97,26.33,1538056800,40.0,40.0,19,40,14.76
Togur,RU,82.83,58.36,1538061919,10.65,10.65,80,0,4.392
Kenitra,MA,-6.57,34.26,1538060400,30.0,30.0,37,40,29.52
Bull Savanna,JM,-77.59,17.89,1538061964,29.75,29.75,66,12,7.452
Fort Nelson,CA,-122.69,58.81,1538060400,1.0,1.0,83,90,11.16
College,US,-147.8,64.86,1538060280,0.0,0.0,16,1,11.16
Saint-Pierre,FR,4.24,48.95,1538060400,25.0,25.0,36,0,11.16
Biltine,TD,20.93,14.53,1538061970,35.05,35.05,29,20,7.0920000000000005
Jhalu,IN,78.25,29.35,1538061971,25.5,25.5,87,12,5.832000000000001
North Bend,US,-124.22,43.41,1538060160,9.81,10.0,96,1,7.5600000000000005
Belaya Gora,RU,146.19,68.54,1538061973,0.15,0.15,100,80,6.372
Usinsk,RU,57.56,66.0,1538061780,5.75,5.75,84,64,21.131999999999998
Manggar,ID,108.27,-2.88,1538061975,25.8,25.8,88,0,11.952
Leeton,AU,146.4,-34.55,1538061977,13.7,13.7,45,44,11.952
Palatka,US,-81.64,29.65,1538061300,29.81,31.0,74,40,11.16
Hailar,CN,119.7,49.2,1538061979,12.85,12.85,60,80,31.752
Okha,RU,142.95,53.59,1538061747,6.7,6.7,92,0,14.652000000000001
Kabompo,ZM,24.21,-13.6,1538061983,32.15,32.15,30,0,13.212
Oistins,BB,-59.53,13.07,1538060400,30.0,30.0,70,40,38.88
Waitati,NZ,170.57,-45.75,1538061986,-0.16,-0.16,89,8,4.752000000000001
Ciudad Bolivar,VE,-63.55,8.12,1538061987,27.75,27.75,100,36,7.272
Wanaka,NZ,169.14,-44.7,1538061988,-4.31,-4.31,91,0,2.412
Bad Freienwalde,DE,14.03,52.79,1538059800,23.0,23.0,49,0,22.32
Porto Velho,BR,-63.87,-8.75,1538060400,31.0,31.0,62,75,5.4
Khasan,RU,130.64,42.43,1538061991,12.1,12.1,100,0,6.732000000000001
Port Moresby,PG,147.16,-9.47,1538061993,24.8,24.8,95,0,35.892
Sao Joao da Barra,BR,-41.05,-21.64,1538060400,32.0,32.0,43,0,18.36
Havoysund,NO,24.66,71.0,1538059800,3.0,3.0,64,75,37.08
Noo,ID,119.74,-1.0,1538061997,20.2,20.2,90,92,2.5919999999999996
Loandjili,CG,11.87,-4.77,1538061999,27.85,27.85,75,0,16.812
Yelizovo,RU,158.38,53.19,1538056800,4.0,4.0,86,0,18.0
Longford,IE,-7.8,53.73,1538060400,11.0,11.0,87,75,18.36
Svobodnyy,RU,40.53,53.85,1538062003,10.15,10.15,85,68,29.772
Tocopilla,CL,-70.2,-22.09,1538062004,16.65,16.65,99,32,6.372
Aykino,RU,49.99,62.22,1538062006,4.15,4.15,96,88,23.471999999999998
Kotovo,RU,44.8,50.32,1538062007,9.45,9.45,52,68,32.652
Severinia,BR,-48.8,-20.81,1538056800,29.0,29.0,51,0,12.959999999999999
Darhan,MN,105.92,49.49,1538062009,-2.21,-2.21,79,0,5.4719999999999995
Mahajanga,MG,46.32,-15.72,1538060400,27.0,27.0,69,0,11.16
Baishishan,CN,127.55,43.58,1538062011,2.95,2.95,82,0,3.6719999999999997
Fairbanks,US,-147.72,64.84,1538060280,0.0,0.0,16,1,11.16
Maceio,BR,-35.74,-9.67,1538060400,29.0,29.0,58,75,25.919999999999998
Broome,GB,1.45,52.47,1538060160,22.74,23.0,38,0,16.56
Santa Maria,BR,-53.81,-29.69,1538056800,21.0,21.0,94,90,22.32
Houston,US,-95.37,29.76,1538061300,21.41,22.8,88,90,7.5600000000000005
Monroe,US,-83.4,41.91,1538061540,15.6,16.3,63,1,7.452
Yarkovo,RU,82.6,54.81,1538058600,15.0,15.0,62,0,3.6
Pemba,MZ,40.52,-12.97,1538060400,26.0,26.0,74,20,20.520000000000003
North Battleford,CA,-108.3,52.78,1538060400,2.0,2.0,80,1,20.520000000000003
Pilar,AR,-58.91,-34.46,1538056800,18.01,19.0,68,75,27.72
Lipari,IT,14.95,38.47,1538056500,22.0,22.0,33,40,12.959999999999999
Shingu,JP,135.99,33.72,1538062029,21.65,21.65,100,0,11.412
Oranjestad,AW,-70.03,12.52,1538060400,31.0,31.0,66,40,35.28
Santa Vitoria do Palmar,BR,-53.37,-33.52,1538062031,17.95,17.95,90,44,27.071999999999996
Igdir,IR,45.24,37.52,1538058600,23.0,23.0,35,20,7.5600000000000005
High Level,CA,-117.13,58.52,1538060880,-2.0,-2.0,92,90,12.959999999999999
Aripuana,BR,-60.63,-9.17,1538062036,32.65,32.65,69,20,4.752000000000001
Ulcinj,ME,19.22,41.93,1538060400,20.96,22.0,15,0,11.16
Yakeshi,CN,120.73,49.28,1538062038,10.95,10.95,64,80,25.272
Nouadhibou,MR,-17.03,20.93,1538060400,39.0,39.0,12,0,37.08
Poronaysk,RU,143.1,49.22,1538062040,3.35,3.35,100,36,4.752000000000001
Kazachinskoye,RU,93.28,57.69,1538062042,8.85,8.85,96,92,3.3120000000000003
